ID,Fuel Type Code,Station Name,Street Address,Intersection Directions,City,State,ZIP,Plus4,Station Phone,Status Code,Expected Date,Groups With Access Code,Access Days Time,Cards Accepted,BD Blends,NG Fill Type Code,NG PSI,EV Level1 EVSE Num,EV Level2 EVSE Num,EV DC Fast Count,EV Other Info,EV Network,EV Network Web,Geocode Status,Latitude,Longitude,Date Last Confirmed,Updated At,Owner Type Code,Federal Agency ID,Federal Agency Name,Open Date,Hydrogen Status Link,NG Vehicle Class,LPG Primary,E85 Blender Pump,Location
73389,ELEC,ComEd,2 Lincoln Center,,Oakbrook Terrace,IL,60181,,,E,,Private,,,,,,,10,,,Non-Networked,,200-9,41.845827,-87.985467,03/07/2022,02/15/2023 04:45:41 PM +0000,T,,,11/12/2013,,,,,"(41.845827, -87.985467)"
152341,ELEC,University of Illinois - 915 S Paulina St,915 S Paulina St,1st Floor||,Chicago,IL,60612,,888-998-2546,E,,Public,,,,,,,3,,,Blink Network,http://www.blinkcharging.com/,GPS,41.864575,-87.645374,04/12/2023,04/11/2023 07:01:37 PM +0000,,,,01/10/2020,,,,,"(41.864575, -87.645374)"
193397,ELEC,OIC PARKING OIC STATION 1,10255 W Higgins Rd,,Rosemont,IL,60018,,888-758-4389,E,,Public,24 hours daily,,,,,,2,,,ChargePoint Network,http://www.chargepoint.com/,GPS,41.995438,-87.882454,04/12/2023,04/11/2023 07:29:20 PM +0000,,,,07/31/2021,,,,,"(41.995438, -87.882454)"
200330,E85,Casey's General Store,311 S Kinzie Ave,,Bradley,IL,60915,,815-939-2247,E,,Public,24 hours daily,A Cash D Debit M V,,,,,,,,,,200-9,41.140532,-87.851305,04/06/2022,03/22/2023 04:21:09 PM +0000,P,,,11/01/2021,,,,false,"(41.140532, -87.851305)"
212968,ELEC,MOTORWERKS1475 EV2 MERCEDES,1475 S Barrington Rd,,Barrington,IL,60010,,888-758-4389,E,,Public,24 hours daily,,,,,,1,,,ChargePoint Network,http://www.chargepoint.com/,GPS,42.129171,-88.134755,04/12/2023,04/11/2023 07:21:45 PM +0000,,,,03/27/2022,,,,,"(42.129171, -88.134755)"
152083,E85,Casey's General Store,2040 S Eastwood Dr,,Woodstock,IL,60098,,815-0337-7657,E,,Public - Credit card at all times,24 hours daily,A D M V,,,,,,,,,,200-8,42.292921,-88.433404,04/06/2022,03/22/2023 04:21:09 PM +0000,P,,,01/03/2020,,,,false,"(42.292921, -88.433404)"
187184,E85,Murphy Express,16030 S Farrell Rd,,Lockport,IL,60441,,815-838-4208,E,,Public - Credit card at all times,24 hours daily,A Cash D Debit M V,,,,,,,,,,GPS,41.59495206229648,-88.02696554365541,09/14/2022,02/14/2023 09:54:11 AM +0000,P,,,09/13/2021,,,,true,"(41.59495206229648, -88.02696554365541)"
38068,E85,Thorntons #310,205 S US Highway 12,,Volo,IL,60073,,815-578-9085,E,,Public - Credit card at all times,24 hours daily,A Cash D M V Voyager Wright_Exp,,,,,,,,,,GPS,42.324636,-88.164053,09/14/2022,02/14/2023 09:54:11 AM +0000,P,,,11/30/2010,,,,false,"(42.324636, -88.164053)"
237377,ELEC,COMED LC3-E-A,3 Lincoln Center,,Oakbrook Terrace,IL,60181,,888-758-4389,E,,Public,24 hours daily,,,,,,2,,,ChargePoint Network,http://www.chargepoint.com/,GPS,41.848027,-87.983121,04/12/2023,04/11/2023 07:07:00 PM +0000,,,,12/08/2022,,,,,"(41.848027, -87.983121)"
203872,BD,Casey's General Store,900 E Market St,,Somonauk,IL,60552,,815-498-3835,E,,Public,24 hours daily,A Cash D Debit M V,"B20 in summer, B5 in winter",,,,,,,,,200-8,41.63543,-88.670747,04/06/2022,03/22/2023 04:21:09 PM +0000,P,,,01/03/2022,,,,,"(41.63543, -88.670747)"
253559,ELEC,Water Tower Place DCFC,835 N Michigan Ave,,Chicago,IL,60611,,888-264-2208,E,,Public,Mon 5:00am - 10:59pm; Tue 5:00am - 10:59pm; Wed 5:00am - 10:59pm; Thu 7:00am - 10:59pm; Fri 5:00am - 10:59pm; Sat 5:00am - 10:59pm; Sun 5:00am - 10:59pm,,,,,,,1,,Volta,https://voltacharging.com/,GPS,41.8981545,-87.6225114,04/12/2023,04/11/2023 08:29:40 PM +0000,,,,02/08/2023,,,,,"(41.8981545, -87.6225114)"
174385,ELEC,WOODMAN'S STORE 43 WEST,27555 IL RTE 120,,Lakemoor,IL,60051,,888-758-4389,E,,Public,24 hours daily,,,,,,2,,,ChargePoint Network,http://www.chargepoint.com/,GPS,42.32142,-88.16632,04/12/2023,04/11/2023 07:18:57 PM +0000,,,,01/27/2021,,,,,"(42.32142, -88.16632)"
237394,ELEC,COMED CND-F-W-01,3500 N California Ave,,Chicago,IL,60618,,888-758-4389,E,,Public,24 hours daily,,,,,,2,,,ChargePoint Network,http://www.chargepoint.com/,GPS,41.944702,-87.698833,04/12/2023,04/11/2023 07:07:59 PM +0000,,,,12/08/2022,,,,,"(41.944702, -87.698833)"
237481,ELEC,COMED CND-E-SW-03,3420 n California ave,,Chicago,IL,60618,,888-758-4389,E,,Public,24 hours daily,,,,,,2,,,ChargePoint Network,http://www.chargepoint.com/,GPS,41.943047,-87.69912,04/12/2023,04/11/2023 07:21:45 PM +0000,,,,12/08/2022,,,,,"(41.943047, -87.69912)"
151776,ELEC,Spring Hill Mall Barnes & Noble,1072 Spring Hill Mall,,West Dundee,IL,60118,,888-264-2208,E,,Public,Mon 5:00am - 10:59pm; Tue 5:00am - 10:59pm; Wed 5:00am - 10:59pm; Thu 5:00am - 10:59pm; Fri 5:00am - 10:59pm; Sat 5:00am - 10:59pm; Sun 5:00am - 10:59pm,,,,,,2,,,Volta,https://voltacharging.com/,GPS,42.10305835,-88.29338415,04/12/2023,04/11/2023 08:29:02 PM +0000,,,,07/31/2015,,,,,"(42.10305835, -88.29338415)"
203106,ELEC,Grieger's Motor Sales,1756 Morthland Dr,,Valparaiso,IN,46385,,219-462-4117,E,,Public - Call ahead,"9am-7pm M-Fri, 9am-5pm Sat",,,,,,1,,,Non-Networked,,200-9,41.462524,-87.081909,01/10/2022,02/10/2022 01:42:29 PM +0000,P,,,11/15/2017,,,,,"(41.462524, -87.081909)"
250460,BD,Gurnee Truck Stop,36725 US Hwy 41,,Gurnee,IL,60031,,847-244-1655,E,,Public,24 hours daily,A APPLE_PAY Cash Comdata CREDIT D Debit EFS FleetOne FuelMan M TCH Tchek V Voyager Wright_Exp,B20-B11,,,,,,,,,GPS,42.39553009942614,-87.92798311904907,02/13/2023,02/14/2023 09:54:11 AM +0000,P,,,01/10/2023,,,,,"(42.39553009942614, -87.92798311904907)"
81664,E85,Thorntons #320,476 N York Rd,,Elmhurst,IL,60126,,630-415-3001,E,,Public - Credit card at all times,24 hours daily,A Cash D M Voyager Wright_Exp,,,,,,,,,,200-9,41.912437,-87.940365,09/14/2022,02/14/2023 09:54:11 AM +0000,P,,,02/15/2017,,,,true,"(41.912437, -87.940365)"
237432,ELEC,COMED ESC-E-N-02,2011 Swift Dr,,Oak Brook,IL,60523,,888-758-4389,E,,Public,24 hours daily,,,,,,2,,,ChargePoint Network,http://www.chargepoint.com/,GPS,41.850838,-87.920567,04/12/2023,04/11/2023 07:17:03 PM +0000,,,,12/08/2022,,,,,"(41.850838, -87.920567)"
47214,ELEC,Gerald Nissan,1575 W Ogden Ave,,Naperville,IL,60540,,630-355-3337,E,,Private,,,,,,,1,,,Non-Networked,,200-9,41.766972,-88.187306,03/07/2022,02/14/2023 09:54:11 AM +0000,P,,,01/31/2012,,,,,"(41.766972, -88.187306)"
224654,ELEC,INTERPARK CH610 WEST,230 W Washington St,,Chicago,IL,60606,,888-758-4389,E,,Public,24 hours daily,,,,,,2,,,ChargePoint Network,http://www.chargepoint.com/,GPS,41.883503,-87.635067,04/12/2023,04/11/2023 07:34:49 PM +0000,,,,07/30/2022,,,,,"(41.883503, -87.635067)"
220479,ELEC,Cubs Blue Lot,1094 W Waveland,,Chicago,IL,60613,,800-663-5633,E,,Public,,,,,,,2,,,SemaCharge Network,https://semaconnect.com/,GPS,41.949021,-87.656726,04/12/2023,04/11/2023 07:01:58 PM +0000,,,,05/12/2022,,,,,"(41.949021, -87.656726)"
171567,ELEC,540 W. MADISON LL1 - 3,540 West Madison St,,Chicago,IL,60661,,888-758-4389,E,,Public,24 hours daily,,,,,,2,,,ChargePoint Network,http://www.chargepoint.com/,GPS,41.883025,-87.642101,04/12/2023,04/11/2023 07:07:51 PM +0000,,,,01/27/2021,,,,,"(41.883025, -87.642101)"
46812,ELEC,Jim M'Lady Nissan,5656 Northwest Hwy,,Crystal Lake,IL,60014,,,E,,Private,,,,,,,1,,,Non-Networked,,200-9,42.226647,-88.306745,06/09/2020,02/15/2023 04:45:41 PM +0000,P,,,01/31/2012,,,,,"(42.226647, -88.306745)"
238803,ELEC,COMED STATION #9,1N301 Swift Rd,,Lombard,IL,60148,,888-758-4389,E,,Public,24 hours daily,,,,,,2,,,ChargePoint Network,http://www.chargepoint.com/,GPS,41.896303,-88.043202,04/12/2023,04/11/2023 07:37:11 PM +0000,,,,12/27/2022,,,,,"(41.896303, -88.043202)"
114187,ELEC,La Banque Hotel - Tesla Destination,2034 Ridge Rd,,Homewood,IL,60430,,708-798-6000  877-798-3752,E,,Public,,,,,,,1,,,Tesla Destination,https://www.tesla.com/destination-charging,200-9,41.56213,-87.666663,10/06/2022,01/18/2023 09:15:20 AM +0000,P,,,01/28/2016,,,,,"(41.56213, -87.666663)"
78523,ELEC,540 W. MADISON LL1-4,13 N Jefferson St,,Chicago,IL,60661,,888-758-4389,E,,Public,24 hours daily,,,,,,2,,,ChargePoint Network,http://www.chargepoint.com/,GPS,41.882368,-87.642179,04/12/2023,04/11/2023 07:08:54 PM +0000,,,,09/17/2016,,,,,"(41.882368, -87.642179)"
230199,ELEC,NOW Foods,1620 Central Ave,,Roselle,IL,60172,,833-692-6787,E,,Public - Credit card at all times,Contact station for hours of availability.,A ANDROID_PAY APPLE_PAY CREDIT D M,,,,,4,,,AMPUP,https://ampup.io/,200-9,41.983673,-88.12415,10/11/2022,02/14/2023 09:54:11 AM +0000,P,,,09/15/2022,,,,,"(41.983673, -88.12415)"
182536,ELEC,ST 1400 & 1450 TOWER 2 LOWER D,1450 American Ln,,Schaumburg,IL,60173,,888-758-4389,E,,Public,24 hours daily,,,,,,2,,,ChargePoint Network,http://www.chargepoint.com/,GPS,42.045316,-88.044042,04/12/2023,04/11/2023 07:10:01 PM +0000,,,,01/27/2021,,,,,"(42.045316, -88.044042)"
189754,ELEC,STERLING BAY GREEN STREET 3,333 N. Green St.,,Chicago,IL,60661,,888-758-4389,E,,Public,24 hours daily,,,,,,2,,,ChargePoint Network,http://www.chargepoint.com/,GPS,41.888024,-87.648486,04/12/2023,04/11/2023 07:21:57 PM +0000,,,,05/16/2021,,,,,"(41.888024, -87.648486)"
73954,ELEC,71086 900910,900 N Lake Shore Dr,,Chicago,IL,60611,,888-758-4389,E,,Public,24 hours daily,,,,,,2,,,ChargePoint Network,http://www.chargepoint.com/,GPS,41.899474,-87.619448,04/12/2023,04/11/2023 07:07:04 PM +0000,,,,03/04/2016,,,,,"(41.899474, -87.619448)"
151775,ELEC,Hawthorn Mall SE Entrance,122 Hawthorn Center,,Vernon Hills,IL,60061,,888-264-2208,E,,Public,Mon 5:00am - 10:59pm; Tue 5:00am - 10:59pm; Wed 5:00am - 10:59pm; Thu 5:00am - 10:59pm; Fri 5:00am - 10:59pm; Sat 5:00am - 10:59pm; Sun 5:00am - 10:59pm,,,,,,2,,,Volta,https://voltacharging.com/,GPS,42.2422045,-87.948445,04/12/2023,04/11/2023 08:29:00 PM +0000,,,,08/04/2017,,,,,"(42.2422045, -87.948445)"
203841,BD,Casey's General Store,825 Cty Line Rd,,Maple Park,IL,60151,,815-827-3671,E,,Public,4am-11pm daily,A Cash D Debit M V,"B20 in summer, B5 in winter",,,,,,,,,GPS,41.90055733916701,-88.60202700024414,04/06/2022,03/22/2023 04:21:09 PM +0000,P,,,01/03/2022,,,,,"(41.90055733916701, -88.60202700024414)"
63641,ELEC,Porcaro Ford,6001 Washington Ave,,Racine,WI,53406,,,E,,Private,Dealership business hours; for customer use only,,,,,,2,,,Non-Networked,,GPS,42.71811834590056,-87.85228796162414,02/13/2023,02/14/2023 09:54:11 AM +0000,P,,,01/01/2014,,,,,"(42.71811834590056, -87.85228796162414)"
187185,E85,Murphy Express,1035 S Rand Rd,,Lake Zurich,IL,60047,,847-438-3727,E,,Public - Credit card at all times,24 hours daily,A Cash D Debit M V,,,,,,,,,,GPS,42.18032960302668,-88.08015254959868,09/14/2022,02/14/2023 09:54:11 AM +0000,P,,,04/05/2021,,,,true,"(42.18032960302668, -88.08015254959868)"
237370,ELEC,COMED WST-F-SW-01,3400 S Pulaski Rd,,Chicago,IL,60623,,888-758-4389,E,,Public,24 hours daily,,,,,,2,,,ChargePoint Network,http://www.chargepoint.com/,GPS,41.830604,-87.724832,04/12/2023,04/11/2023 07:05:06 PM +0000,,,,12/08/2022,,,,,"(41.830604, -87.724832)"
121292,ELEC,LAKE ZURICH VILLAGE HALL,70 E Main St,,Lake Zurich,IL,60047,,888-758-4389,E,,Public,24 hours daily,,,,,,2,,,ChargePoint Network,http://www.chargepoint.com/,GPS,42.197709,-88.09147,04/12/2023,04/11/2023 07:16:56 PM +0000,,,,04/10/2019,,,,,"(42.197709, -88.09147)"
212462,ELEC,Tinley Park Plaza,16039 South Harlem Avenue,,Tinley Park,IL,60477,,888-264-2208,E,,Public,Mon 5:00am - 10:59pm; Tue 5:00am - 10:59pm; Wed 5:00am - 10:59pm; Thu 5:00am - 10:59pm; Fri 5:00am - 10:59pm; Sat 5:00am - 10:59pm; Sun 5:00am - 10:59pm,,,,,,2,,L2,Volta,https://voltacharging.com/,GPS,41.59874448,-87.792734533,04/12/2023,04/11/2023 08:30:33 PM +0000,,,,03/25/2022,,,,,"(41.59874448, -87.792734533)"
196456,ELEC,WOODMAN'S 44 EAST,1 Stratford Dr,,Bloomingdale,IL,60108,,888-758-4389,E,,Public,24 hours daily,,,,,,2,,,ChargePoint Network,http://www.chargepoint.com/,GPS,41.949703,-88.1164,04/12/2023,04/11/2023 07:29:41 PM +0000,,,,09/29/2021,,,,,"(41.949703, -88.1164)"
114167,ELEC,Wyndham Chicago O'Hare - Tesla Destination,1450 Touhy Ave,,Des Plaines,IL,60018,,847-296-8866  877-798-3752,E,,Public,,,,,,,2,,,Tesla Destination,https://www.tesla.com/destination-charging,200-9,42.0103814,-87.887338,10/06/2022,01/18/2023 09:15:20 AM +0000,P,,,04/13/2018,,,,,"(42.0103814, -87.887338)"
62545,CNG,GAIN Clean Fuel - Gary,6700 W 15th Ave,,Gary,IN,46406,,800-438-7912,E,,Public - Credit card at all times,24 hours daily; contact 920-243-5856 to set up account,A CFN Comdata D EFS FleetOne FuelMan GasCard M TCH Tchek V Voyager Wright_Exp,,Q,3600,,,,,,,200-8,41.58805,-87.419547,04/06/2023,04/06/2023 12:17:01 PM +0000,P,,,07/13/2014,,HD,,,"(41.58805, -87.419547)"
194140,ELEC,TARGET CORP HIGHLAND PARK 1,2099 Skokie Valley Rd,,Highland Park,IL,60035,,888-758-4389,E,,Public,Mon 7:00am - 12:00am; Tue 7:00am - 12:00am; Wed 7:00am - 12:00am; Thu 7:00am - 12:00am; Fri 7:00am - 12:00am; Sat 7:00am - 12:00am; Sun 7:00am - 12:00am,,,,,,2,,,ChargePoint Network,http://www.chargepoint.com/,GPS,42.19139,-87.826329,04/12/2023,04/11/2023 07:29:44 PM +0000,,,,08/20/2021,,,,,"(42.19139, -87.826329)"
13050,LPG,AmeriGas,700 County Highway H,Route 12 exit,Elkhorn,WI,53121,,262-723-7410,T,03/01/2022,TEMPORARILY UNAVAILABLE (Public),8am-3pm M-F,Cash M V,,,,,,,,,,200-9,42.660919,-88.522923,11/04/2021,02/10/2022 01:42:29 PM +0000,P,,,05/11/1999,,,false,,"(42.660919, -88.522923)"
223761,ELEC,HYUNDAI NORTH CUSTOMER UNIT,901 S Milwaukee Ave,,Libertyville,IL,60048,,888-758-4389,T,12/17/2022,TEMPORARILY UNAVAILABLE (Public),24 hours daily,,,,,,1,,,ChargePoint Network,http://www.chargepoint.com/,GPS,42.274184,-87.953297,04/12/2023,04/11/2023 07:33:14 PM +0000,,,,07/20/2022,,,,,"(42.274184, -87.953297)"
171933,ELEC,"EVANSTON, IL SHERMAN PLAZA 3",821 Davis St,,Evanston,IL,60201,,888-758-4389,E,,Public,24 hours daily,,,,,,2,,,ChargePoint Network,http://www.chargepoint.com/,GPS,42.047319,-87.683219,04/12/2023,04/11/2023 07:06:02 PM +0000,,,,01/27/2021,,,,,"(42.047319, -87.683219)"
144888,E85,Casey's General Store,2004 Morthland Dr,,Valparaiso,IN,46383,,219-476-9486,E,,Public,24 hours daily,A Cash Comdata D Debit FleetOne M TCH Tchek V,,,,,,,,,,200-9,41.459372,-87.036311,04/06/2022,03/22/2023 04:21:09 PM +0000,P,,,08/28/2019,,,,true,"(41.459372, -87.036311)"
237349,ELEC,COMED CMC-E-BA-01,1919 Swift Dr,,Oak Brook,IL,60523,,888-758-4389,E,,Public,24 hours daily,,,,,,2,,,ChargePoint Network,http://www.chargepoint.com/,GPS,41.851785,-87.920809,04/12/2023,04/11/2023 07:03:30 PM +0000,,,,12/08/2022,,,,,"(41.851785, -87.920809)"
43890,LPG,AmeriGas,804 E Morthland Dr,,Valparaiso,IN,46385,,219-462-3187,E,,Public - Call ahead,8am-4:30pm M-F,A Cash Checks D M V,,,,,,,,,,GPS,41.45718959824364,-87.05092439983846,11/04/2021,02/10/2022 01:42:29 PM +0000,P,,,03/14/2012,,,false,,"(41.45718959824364, -87.05092439983846)"
213167,ELEC,Northwestern Hospital Huntley,10400 Haligus Road,,Huntley,IL,60142,,800-663-5633,E,,Public,,,,,,,4,,,SemaCharge Network,https://semaconnect.com/,GPS,42.17809,-88.399633,04/12/2023,04/11/2023 07:00:43 PM +0000,,,,12/08/2021,,,,,"(42.17809, -88.399633)"
114193,ELEC,Hotel Indigo Naperville Riverwalk - Tesla Destination,120 Water St,,Naperville,IL,60540,,630-778-9676  877-798-3752,E,,Public,,,,,,,4,,,Tesla Destination,https://www.tesla.com/destination-charging,200-9,41.7706981,-88.1502517,10/06/2022,01/18/2023 09:15:20 AM +0000,P,,,02/28/2018,,,,,"(41.7706981, -88.1502517)"
80161,E85,Speedway #7412,1110-1120 W Irving Park Rd,,Bensenville,IL,60106,,630-616-7611,E,,Public - Credit card at all times,24 hours daily,A Cash D M V Voyager Wright_Exp,,,,,,,,,,200-9,41.960144,-87.957416,10/11/2022,02/14/2023 09:54:11 AM +0000,P,,,12/15/2016,,,,false,"(41.960144, -87.957416)"
227922,ELEC,KENNEDY MAZDA KENNEDY MAZDA,3200 Calumet Ave,,Valparaiso,IN,46383,,888-758-4389,E,,Public,24 hours daily,,,,,,2,,,ChargePoint Network,http://www.chargepoint.com/,GPS,41.497017,-87.042833,04/12/2023,04/11/2023 07:35:23 PM +0000,,,,09/21/2022,,,,,"(41.497017, -87.042833)"
237623,ELEC,Meijer - Tesla Supercharger,815 S Randall Rd,,Elgin,IL,60123,,877-798-3752,E,,Public,24 hours daily,A D Debit M V,,,,,,12,,Tesla,https://www.tesla.com/supercharger,GPS,42.012497,-88.335638,01/10/2023,02/14/2023 09:54:11 AM +0000,P,,,10/26/2022,,,,,"(42.012497, -88.335638)"
95170,ELEC,Mariano's - Frankfort IL,21001 S LaGrange Rd,Located off of LaGrange in the parking ||lot between McDonalds and Mariano's. ||(left side of the Mariano's bldg.)||,Frankfort,IL,60423,,888-998-2546,E,,Public,,,,,,,1,,,Blink Network,http://www.blinkcharging.com/,GPS,41.509059,-87.848268,04/12/2023,04/11/2023 07:01:38 PM +0000,,,,12/31/2015,,,,,"(41.509059, -87.848268)"
50514,LPG,Menards,1800 Marketview Dr,,Yorkville,IL,60560,,630-553-8601,E,,Public,"6:30am-10pm M-F, 6:30am-9pm Sat, 8am-8pm Sun",A Cash Checks D M V,,,,,,,,,,200-9,41.66473,-88.438626,09/14/2022,02/14/2023 09:54:11 AM +0000,P,,,01/16/2013,,,true,,"(41.66473, -88.438626)"
228124,ELEC,Walgreens,5158 N Lincoln Ave,,Chicago,IL,60625,,877-455-3833,T,03/09/2023,TEMPORARILY UNAVAILABLE (Public),24 hours daily,,,,,,,1,,eVgo Network,https://www.evgo.com/,GPS,41.97494,-87.69292,04/11/2023,04/11/2023 06:55:49 PM +0000,,,,12/03/2014,,,,,"(41.97494, -87.69292)"
121729,ELEC,"Target T1167 - Glenview, IL",2241 Willow Rd,,Glenview,IL,60025,,833-632-2778,E,,Public,24 hours daily,,,,,,1,3,,Electrify America,https://www.electrifyamerica.com/,GPS,42.10326,-87.81453,04/12/2023,04/11/2023 07:43:28 PM +0000,,,,04/26/2019,,,,,"(42.10326, -87.81453)"
219826,E85,Shell,1 N Green Bay Rd,,Waukegan,IL,60085,,440-792-4200,E,,Public,24 hours daily,,,,,,,,,,,GPS,42.3599582357918,-87.8732842485213,06/14/2022,02/14/2023 09:54:11 AM +0000,P,,,04/11/2022,,,,true,"(42.3599582357918, -87.8732842485213)"
149405,ELEC,WINDY CITY-FOX CHICAGO DC-HOG,1027 W. Addison Street,,Chicago,IL,60613,,888-758-4389,T,12/30/2022,TEMPORARILY UNAVAILABLE (Public),24 hours daily,,,,,,,1,,ChargePoint Network,http://www.chargepoint.com/,GPS,41.946796,-87.65494,04/12/2023,04/11/2023 07:20:30 PM +0000,,,,11/22/2019,,,,,"(41.946796, -87.65494)"
171654,ELEC,3RD FLOOR GREENWAY-2,60 W Kinzie St,,Chicago,IL,60661,,888-758-4389,E,,Public,24 hours daily,,,,,,2,,,ChargePoint Network,http://www.chargepoint.com/,GPS,41.889364,-87.630365,04/12/2023,04/11/2023 07:03:40 PM +0000,,,,01/27/2021,,,,,"(41.889364, -87.630365)"
202740,ELEC,"EVANSTON, IL LOT 32",815 Hinman Ave,,Evanston,IL,60202,,888-758-4389,E,,Public,24 hours daily,,,,,,2,,,ChargePoint Network,http://www.chargepoint.com/,GPS,42.032833,-87.67711,04/12/2023,04/11/2023 07:31:31 PM +0000,,,,12/17/2021,,,,,"(42.032833, -87.67711)"
237475,ELEC,COMED S4-4,3500 N California Ave,,Chicago,IL,60618,,888-758-4389,E,,Public,24 hours daily,,,,,,2,,,ChargePoint Network,http://www.chargepoint.com/,GPS,41.943998,-87.699999,04/12/2023,04/11/2023 07:21:26 PM +0000,,,,12/08/2022,,,,,"(41.943998, -87.699999)"
46975,CNG,Groot Industries - Round Lake Park,40 Porter Dr,Route 120 and Porter Dr,Round Lake Park,IL,60073,,847-734-6400,E,,Private - Fleet customers only,8am-2pm M-F; call 847-734-6400 to set up an account,FuelMan,,Q,3600,,,,,,,200-9,42.345841,-88.081547,01/10/2023,02/14/2023 09:54:11 AM +0000,P,,,06/01/2012,,HD,,,"(42.345841, -88.081547)"
156221,ELEC,Walton on the Park Underground Garage,2 W. Delaware Place,,Chicago,IL,60610,,888-998-2546,E,,Public,,,,,,,2,,,Blink Network,http://www.blinkcharging.com/,GPS,41.899409,-87.62879,04/11/2023,04/11/2023 06:58:34 PM +0000,,,,05/13/2020,,,,,"(41.899409, -87.62879)"
168035,ELEC,"Meijer Evergreen Park (Evergreen Park, IL)",9200 S Western Ave,,Evergreen Park,IL,60805,,833-632-2778,E,,Public,24 hours daily,,,,,,,4,,Electrify America,https://www.electrifyamerica.com/,GPS,41.72509,-87.68338,04/12/2023,04/11/2023 07:44:23 PM +0000,,,,10/30/2020,,,,,"(41.72509, -87.68338)"
237340,ELEC,COMED CSD-F-E,7601 S Lawndale Ave,,Chicago,IL,60652,,888-758-4389,T,12/08/2022,TEMPORARILY UNAVAILABLE (Public),24 hours daily,,,,,,1,,,ChargePoint Network,http://www.chargepoint.com/,GPS,41.75436,-87.713921,04/12/2023,04/11/2023 07:03:16 PM +0000,,,,12/08/2022,,,,,"(41.75436, -87.713921)"
60987,ELEC,Western Avenue Nissan,7410 S Western Ave,,Chicago,IL,60636,,773-776-8200,E,,Public - Call ahead,Dealership business hours,,,,,,1,,,Non-Networked,,200-9,41.758552,-87.683346,06/09/2020,03/11/2021 05:22:17 PM +0000,P,,,02/01/2014,,,,,"(41.758552, -87.683346)"
67274,E85,Route 66 Food N' Fuel,2560 N Cedar Rd,,New Lenox,IL,60451,,815-463-8200,E,,Public - Credit card at all times,24 hours daily,A Cash Checks D Debit FuelMan M V Voyager Wright_Exp,,,,,,,,,,200-9,41.54953,-87.966581,09/14/2022,02/14/2023 09:54:11 AM +0000,P,,,05/15/2015,,,,false,"(41.54953, -87.966581)"
207281,ELEC,"Kohl's Joliet, IL",2510 Route 59,,Plainfield,IL,60586,,888-264-2208,E,,Public,Mon 7:00am - 9:00pm; Tue 7:00am - 9:00pm; Wed 7:00am - 9:00pm; Thu 7:00am - 9:00pm; Fri 7:00am - 9:00pm; Sat 7:00am - 9:00pm; Sun 7:00am - 9:00pm,,,,,,2,,,Volta,https://voltacharging.com/,GPS,41.5673625,-88.198741,04/12/2023,04/11/2023 08:29:46 PM +0000,,,,02/23/2022,,,,,"(41.5673625, -88.198741)"
255434,ELEC,Baker Hill,880 Roosevelt Rd,,Glen Ellyn,IL,60137,,877-455-3833,E,,Public,24 hours daily,,,,,,,4,,eVgo Network,https://www.evgo.com/,GPS,41.8597451,-88.0511638,04/11/2023,04/11/2023 06:56:09 PM +0000,,,,03/02/2023,,,,,"(41.8597451, -88.0511638)"
238640,ELEC,DEKALB NORTH 1,Gurler Rd at Crego Rd (Facebook | META) - EB,,DeKalb,IL,60115,,888-758-4389,E,,Public,24 hours daily,,,,,,2,,,ChargePoint Network,http://www.chargepoint.com/,GPS,41.892831,-88.733452,04/12/2023,04/11/2023 07:37:00 PM +0000,,,,12/22/2022,,,,,"(41.892831, -88.733452)"
201939,ELEC,"Kohl's Wheaton, IL",401 S County Farm Rd,,Wheaton,IL,60187,,888-264-2208,E,,Public,Mon 7:00am - 9:00pm; Tue 7:00am - 9:00pm; Wed 7:00am - 9:00pm; Thu 7:00am - 9:00pm; Fri 7:00am - 9:00pm; Sat 7:00am - 9:00pm; Sun 7:00am - 9:00pm,,,,,,2,,,Volta,https://voltacharging.com/,GPS,41.8602705,-88.141375,04/12/2023,04/11/2023 08:28:51 PM +0000,,,,11/26/2021,,,,,"(41.8602705, -88.141375)"
237470,ELEC,COMED GW2,3500 N California Ave,,Chicago,IL,60618,,888-758-4389,E,,Public,24 hours daily,,,,,,2,,,ChargePoint Network,http://www.chargepoint.com/,GPS,41.94404,-87.699923,04/12/2023,04/11/2023 07:21:26 PM +0000,,,,12/08/2022,,,,,"(41.94404, -87.699923)"
237501,ELEC,COMED MW-F-CPF1,1505 S 1st Ave,,Maywood,IL,60153,,888-758-4389,E,,Public,24 hours daily,,,,,,1,,,ChargePoint Network,http://www.chargepoint.com/,GPS,41.874398,-87.832516,04/12/2023,04/11/2023 07:29:37 PM +0000,,,,12/08/2022,,,,,"(41.874398, -87.832516)"
71915,E85,Kwik Trip #230,10451 72nd Ave,,Pleasant Prairie,WI,53158,,262-947-1095,E,,Public,5am-11pm daily,A ANDROID_PAY APPLE_PAY Cash Checks CREDIT D M V Voyager Wright_Exp,,,,,,,,,,GPS,42.522504,-87.894088,05/05/2022,02/20/2023 01:33:35 PM +0000,P,,,12/15/2015,,,,true,"(42.522504, -87.894088)"
169699,ELEC,Best Western - Hawthorne Terrace,3434 N Broadway Ave,,Chicago,IL,60657,,773-244-3434,E,,Public,24 hours daily,,,,,,1,,,AMPUP,https://ampup.io/,200-9,41.944195,-87.645488,09/10/2021,02/10/2022 01:42:29 PM +0000,P,,,12/01/2020,,,,,"(41.944195, -87.645488)"
211915,ELEC,AMC Showplace New Lenox 14,1320 W Maple St,,New Lenox,IL,60451,,888-264-2208,E,,Public,Mon 5:00am - 10:59pm; Tue 5:00am - 10:59pm; Wed 5:00am - 10:59pm; Thu 5:00am - 10:59pm; Fri 5:00am - 10:59pm; Sat 5:00am - 10:59pm; Sun 5:00am - 10:59pm,,,,,,4,,,Volta,https://voltacharging.com/,GPS,41.516626176,-87.990655197,04/12/2023,04/11/2023 08:30:23 PM +0000,,,,03/16/2022,,,,,"(41.516626176, -87.990655197)"
258153,ELEC,1 E 8th St. Garage,1 East 8th Street,,Chicago,IL,60605,,855-223-5351,E,,Public,24 hours daily,A D M V,,,,,2,,,FLASH,https://www.flashparking.com/products/diversify-parking-revenue/ev-charging-as-a-revenue-stream/,GPS,41.87172,-87.62745,04/12/2023,04/11/2023 08:31:21 PM +0000,,,,04/06/2023,,,,,"(41.87172, -87.62745)"
19920,LPG,U-Haul,4650 W 95th St,East of Cicero Ave,Oak Lawn,IL,60453,,708-422-2332,E,,Public,"7am-7pm M-Th and Sat, 7am-8pm F, 9am-5pm Sun",A Cash D M V,,,,,,,,,,200-9,41.720593,-87.737454,02/13/2023,02/14/2023 09:54:11 AM +0000,P,,,11/01/2000,,,true,,"(41.720593, -87.737454)"
185392,ELEC,MILLENNIUM GRGS MPG PILOT #3,5 S Columbus Dr,,Chicago,IL,60601,,888-758-4389,E,,Public,24 hours daily,,,,,,2,,,ChargePoint Network,http://www.chargepoint.com/,GPS,41.882412,-87.621237,04/12/2023,04/11/2023 07:27:14 PM +0000,,,,02/26/2021,,,,,"(41.882412, -87.621237)"
228117,ELEC,Walgreens - West Fullerton,1520 W Fullerton Ave,,Chicago,IL,60614,,877-455-3833,T,09/21/2022,TEMPORARILY UNAVAILABLE (Public),24 hours daily,,,,,,,1,,eVgo Network,https://www.evgo.com/,GPS,41.92571,-87.66618,04/11/2023,04/11/2023 06:55:49 PM +0000,,,,03/07/2018,,,,,"(41.92571, -87.66618)"
105025,ELEC,AVANT1 NW AVANT EV,450 Warrenville Rd,,Lisle,IL,60532,,888-758-4389,T,03/23/2023,TEMPORARILY UNAVAILABLE (Public),24 hours daily,,,,,,1,,,ChargePoint Network,http://www.chargepoint.com/,GPS,41.809503,-88.061736,04/12/2023,04/11/2023 07:14:57 PM +0000,,,,11/30/2018,,,,,"(41.809503, -88.061736)"
47136,ELEC,Nissan of South Holland,16269 Van Dam Rd,,South Holland,IL,60473,,708-333-2000,E,,Private,,,,,,,1,,,Non-Networked,,200-9,41.598505,-87.5824,06/09/2020,02/15/2023 04:45:41 PM +0000,P,,,01/31/2012,,,,,"(41.598505, -87.5824)"
63528,ELEC,Town of Dyer - Town Hall,1 Town Square,Route 30/ Hart Street,Dyer,IN,46311,,219-865-6108,E,,Private,Fleet vehicle use only,,,,,,1,,,Non-Networked,,GPS,41.492057,-87.522819,01/10/2023,02/14/2023 09:54:11 AM +0000,LG,,,10/15/2010,,,,,"(41.492057, -87.522819)"
219638,E85,Thorntons,1125 S 25th Ave,,Bellwood,IL,60104,,708-649-3090,E,,Public,24 hours daily,,,,,,,,,,,GPS,41.8721931954565,-87.8619780196973,06/14/2022,02/14/2023 09:54:11 AM +0000,P,,,04/13/2022,,,,true,"(41.8721931954565, -87.8619780196973)"
86102,ELEC,MOMENT MOMENT 1,545 N McClurg Ct,,Chicago,IL,60611,,888-758-4389,E,,Public,24 hours daily,,,,,,2,,,ChargePoint Network,http://www.chargepoint.com/,GPS,41.892047,-87.617241,04/12/2023,04/11/2023 07:08:39 PM +0000,,,,07/28/2017,,,,,"(41.892047, -87.617241)"
236273,ELEC,The Lighthouse Church of All Nations,4501 W. 127th St.,The stations are located in the front of the parking lot closest to the office buildings,Alsip,IL,60803,,800-663-5633,E,,Public,,,,,,,4,,,SemaCharge Network,https://semaconnect.com/,GPS,41.658162,-87.730928,04/12/2023,04/11/2023 07:01:22 PM +0000,,,,07/28/2021,,,,,"(41.658162, -87.730928)"
185440,ELEC,ADVOCATE IL MASONIC 4,933 w. Nelson Ave,,Chicago,IL,60657,,888-758-4389,E,,Public,24 hours daily,,,,,,2,,,ChargePoint Network,http://www.chargepoint.com/,GPS,41.937062,-87.652714,04/12/2023,04/11/2023 07:27:17 PM +0000,,,,02/27/2021,,,,,"(41.937062, -87.652714)"
102574,E85,Gas N Wash - Plainfield,25653 W Lockport St,,Plainfield,IL,60544,,779-252-4006,E,,Public,24 hours daily,A Cash D Debit M V Voyager Wright_Exp,,,,,,,,,,GPS,41.60732276437459,-88.24130202661132,11/10/2022,02/14/2023 09:54:11 AM +0000,P,,,08/15/2018,,,,false,"(41.60732276437459, -88.24130202661132)"
152188,ELEC,Hawthorn Mall Macys,122 Hawthorn Center,,Vernon Hills,IL,60061,,888-264-2208,E,,Public,Mon 5:00am - 10:59pm; Tue 5:00am - 10:59pm; Wed 5:00am - 10:59pm; Thu 5:00am - 10:59pm; Fri 5:00am - 10:59pm; Sat 5:00am - 10:59pm; Sun 5:00am - 10:59pm,,,,,,2,,,Volta,https://voltacharging.com/,GPS,42.2417095,-87.9519475,04/12/2023,04/11/2023 08:29:50 PM +0000,,,,01/20/2020,,,,,"(42.2417095, -87.9519475)"
117262,ELEC,Northwestern Memorial HealthCare,425 E Erie St,,Chicago,IL,60611,,,E,,Private,,,,,,,4,,,Non-Networked,,200-9,41.894144,-87.617133,09/10/2021,02/15/2023 04:45:41 PM +0000,P,,,09/20/2018,,,,,"(41.894144, -87.617133)"
256684,ELEC,PARC HURON MIDDLE STATION,469 W Huron St,,Chicago,IL,60654,,888-758-4389,E,,Public,24 hours daily,,,,,,2,,,ChargePoint Network,http://www.chargepoint.com/,GPS,41.89452,-87.64123,04/12/2023,04/11/2023 07:31:19 PM +0000,,,,03/18/2023,,,,,"(41.89452, -87.64123)"
151761,ELEC,Chicago Ridge Mall,444 Chicago Ridge Mall,,Chicago Ridge,IL,60415,,888-264-2208,E,,Public,Mon 5:00am - 10:59pm; Tue 5:00am - 10:59pm; Wed 5:00am - 10:59pm; Thu 5:00am - 10:59pm; Fri 5:00am - 10:59pm; Sat 5:00am - 10:59pm; Sun 5:00am - 10:59pm,,,,,,2,,,Volta,https://voltacharging.com/,GPS,41.7165145,-87.7834165,04/12/2023,04/11/2023 08:29:03 PM +0000,,,,02/27/2017,,,,,"(41.7165145, -87.7834165)"
66130,LPG,Flying J,1401 Ripley St,I-94 & Exit 15b,Lake Station,IN,46405,,219-962-6555,E,,Public,24 hours daily,A Cash Checks D M V,,,,,,,,,,200-9,41.586441,-87.239128,09/14/2022,02/14/2023 09:54:11 AM +0000,P,,,02/15/2015,,,false,,"(41.586441, -87.239128)"
154393,ELEC,222 N LaSalle Parking Garage,222 N La Salle St,,Chicago,IL,60601,,855-900-7584,E,,Public,24 hours daily,,,,,,4,,,SHELL_RECHARGE,https://shellrecharge.com/en-us/solutions,200-9,41.886578,-87.632776,04/12/2023,04/11/2023 07:41:40 PM +0000,,,,03/10/2020,,,,,"(41.886578, -87.632776)"
237360,ELEC,COMED JOL-F-D,1910 S Briggs St,,Joliet,IL,60433,,888-758-4389,E,,Public,24 hours daily,,,,,,2,,,ChargePoint Network,http://www.chargepoint.com/,GPS,41.493393,-88.036644,04/12/2023,04/11/2023 07:05:02 PM +0000,,,,12/08/2022,,,,,"(41.493393, -88.036644)"
55676,ELEC,LF CITY HALL CITY HALL LOT,220 E Deerpath Rd,,Lake Forest,IL,60045,,888-758-4389,E,,Public,24 hours daily,,,,,,2,,,ChargePoint Network,http://www.chargepoint.com/,GPS,42.251844,-87.842189,04/12/2023,04/11/2023 07:03:34 PM +0000,,,,12/01/2013,,,,,"(42.251844, -87.842189)"
151741,ELEC,"Walgreens at 111 S Halsted St, Chicago",111 S Halsted St,,Chicago,IL,60661,,888-264-2208,E,,Public,Mon 11:00pm - 10:59pm; Tue 11:00pm - 10:59pm; Wed 11:00pm - 10:59pm; Thu 11:00pm - 10:59pm; Fri 11:00pm - 10:59pm; Sat 11:00pm - 10:59pm; Sun 11:00pm - 10:59pm,,,,,,2,,,Volta,https://voltacharging.com/,GPS,41.880205,-87.6470495,04/12/2023,04/11/2023 08:28:51 PM +0000,,,,10/24/2019,,,,,"(41.880205, -87.6470495)"
204577,E85,Woodman's Food Market,27555 IL Route 120,,Lakemoor,IL,60051,,779-704-4220,E,,Public,24 hours daily,Cash CREDIT D,,,,,,,,,,GPS,42.32217711415619,-88.16811702775576,11/10/2022,02/14/2023 09:54:11 AM +0000,P,,,01/10/2022,,,,false,"(42.32217711415619, -88.16811702775576)"
183626,ELEC,Walgreens #4978 West Loop,111 S. Halsted St.,,Chicago,IL,60661,,888-998-2546,T,03/02/2023,TEMPORARILY UNAVAILABLE (Public),,,,,,,2,,,Blink Network,http://www.blinkcharging.com/,GPS,41.88005,-87.646719,04/11/2023,04/11/2023 06:58:12 PM +0000,,,,01/29/2021,,,,,"(41.88005, -87.646719)"
222109,ELEC,CAR CHARGER 1 STATION 2,373 W Geneva St,,Williams Bay,WI,53191,,888-758-4389,E,,Public,24 hours daily,,,,,,2,,,ChargePoint Network,http://www.chargepoint.com/,GPS,42.570353,-88.556271,04/12/2023,04/11/2023 07:30:29 PM +0000,,,,06/29/2022,,,,,"(42.570353, -88.556271)"
252038,ELEC,PUGI HYUNDAI 1 EAST,1866 Ogden Ave,,Downers Grove,IL,60515,,888-758-4389,E,,Public,24 hours daily,,,,,,,1,,ChargePoint Network,http://www.chargepoint.com/,GPS,41.80826,-88.032604,04/12/2023,04/11/2023 07:37:34 PM +0000,,,,01/25/2023,,,,,"(41.80826, -88.032604)"
253419,ELEC,175 W JACKSON 175 W JACKSON,175 Jackson Blvd,,Chicago,IL,60604,,888-758-4389,E,,Public,Mon 5:00am - 5:00pm; Tue 5:00am - 5:00pm; Wed 5:00am - 5:00pm; Thu 5:00am - 5:00pm; Fri 5:00am - 5:00pm,,,,,,2,,,ChargePoint Network,http://www.chargepoint.com/,GPS,41.877872,-87.6332,04/12/2023,04/11/2023 07:36:38 PM +0000,,,,02/07/2023,,,,,"(41.877872, -87.6332)"
20844,E85,Citgo,4070 N Clark St,,Chicago,IL,60613,,773-528-3040,E,,Public,24 hours daily,A Cash D Debit M V Wright_Exp,,,,,,,,,,200-9,41.956159,-87.663596,10/11/2022,02/14/2023 09:54:11 AM +0000,P,,,08/15/2000,,,,false,"(41.956159, -87.663596)"
212284,ELEC,Amazon Fresh North Riverside Plaza DCFC,7201 West 24th Street,,North Riverside,IL,60546,,888-264-2208,E,,Public,Mon 5:00am - 10:59pm; Tue 5:00am - 10:59pm; Wed 5:00am - 10:59pm; Thu 5:00am - 10:59pm; Fri 5:00am - 10:59pm; Sat 5:00am - 10:59pm; Sun 5:00am - 10:59pm,,,,,,,1,DCFC,Volta,https://voltacharging.com/,GPS,41.847795957,-87.803856175,04/12/2023,04/11/2023 08:29:06 PM +0000,,,,03/25/2022,,,,,"(41.847795957, -87.803856175)"
237513,ELEC,COMED AUR-F-SE1-1,2001 Aucutt Rd,,Montgomery,IL,60538,,888-758-4389,E,,Public,24 hours daily,,,,,,1,,,ChargePoint Network,http://www.chargepoint.com/,GPS,41.729596,-88.36705,04/12/2023,04/11/2023 07:30:53 PM +0000,,,,12/08/2022,,,,,"(41.729596, -88.36705)"
88508,E85,Marathon - South Holland,1144 E 162nd St,,South Holland,IL,60473,,708-331-1575,E,,Public - Credit card at all times,24 hours daily,A D Debit M V Voyager Wright_Exp,,,,,,,,,,200-9,41.601134,-87.588957,09/14/2022,02/14/2023 09:54:11 AM +0000,P,,,11/15/2017,,,,true,"(41.601134, -87.588957)"
88238,E85,Speedway #3994,1501 W Roosevelt Rd,,West Chicago,IL,60185,,630-876-9902,E,,Public - Credit card at all times,24 hours daily,A Cash D Debit M V Voyager Wright_Exp,,,,,,,,,,200-9,41.877721,-88.235499,10/11/2022,02/14/2023 09:54:11 AM +0000,P,,,10/15/2017,,,,false,"(41.877721, -88.235499)"
35711,E85,Family Express - Valpo Burlington Beach,1901 Burlington Beach Rd,,Valparaiso,IN,46383,,219-462-9797,E,,Public,4am-12am daily,A Cash D Debit M V Voyager Wright_Exp,,,,,,,,,,200-9,41.507685,-87.037894,11/10/2022,02/14/2023 09:54:11 AM +0000,P,,,06/15/2010,,,,true,"(41.507685, -87.037894)"
218164,ELEC,WAUCONDA CITY HALL 1,101 N Main St,,Wauconda,IL,60084,,888-758-4389,E,,Public,24 hours daily,,,,,,2,,,ChargePoint Network,http://www.chargepoint.com/,GPS,42.260101,-88.141775,04/12/2023,04/11/2023 07:33:57 PM +0000,,,,05/14/2022,,,,,"(42.260101, -88.141775)"
237365,ELEC,COMED OCC-E-E-02,1700 Spencer Rd,,Joliet,IL,60433,,888-758-4389,E,,Public,24 hours daily,,,,,,2,,,ChargePoint Network,http://www.chargepoint.com/,GPS,41.494821,-88.032836,04/12/2023,04/11/2023 07:05:02 PM +0000,,,,12/08/2022,,,,,"(41.494821, -88.032836)"
122437,ELEC,Fairfield Inn and Suites Fair Oaks Farms - Tesla Destination,708 N 600 E,,Fair Oaks,IN,47943,,219-394-2100  877-798-3752,E,,Public,,,,,,,2,,,Tesla Destination,https://www.tesla.com/destination-charging,200-8,41.009483,-87.27745,10/06/2022,01/18/2023 09:15:20 AM +0000,P,,,02/15/2019,,,,,"(41.009483, -87.27745)"
143372,ELEC,ADVOCATE GOODSAMARITAN 2,3815 Highland Ave,,Downers Grove,IL,60515,,888-758-4389,E,,Public,24 hours daily,,,,,,2,,,ChargePoint Network,http://www.chargepoint.com/,GPS,41.817062,-88.008468,04/12/2023,04/11/2023 07:18:05 PM +0000,,,,08/15/2019,,,,,"(41.817062, -88.008468)"
47218,ELEC,Kelly Nissan,4300 W 95th St,,Oak Lawn,IL,60453,,708-499-1000,E,,Private,,,,,,,1,,,Non-Networked,,200-9,41.720728,-87.728594,06/09/2020,02/15/2023 04:45:41 PM +0000,P,,,01/31/2012,,,,,"(41.720728, -87.728594)"
116177,ELEC,2894 on Main Cafe - Tesla Destination,2894 Main St,,East Troy,WI,53120,,262-642-9600  877-798-3752,E,,Public,,,,,,,1,,,Tesla Destination,https://www.tesla.com/destination-charging,200-9,42.785565,-88.405655,10/06/2022,01/18/2023 09:15:20 AM +0000,P,,,09/08/2014,,,,,"(42.785565, -88.405655)"
220241,ELEC,PLYMOUTH PLACE STATION 1,315 N La Grange Rd,,La Grange Park,IL,60526,,888-758-4389,E,,Public,24 hours daily,,,,,,1,,,ChargePoint Network,http://www.chargepoint.com/,GPS,41.82038,-87.867914,04/12/2023,04/11/2023 07:33:27 PM +0000,,,,05/27/2022,,,,,"(41.82038, -87.867914)"
173547,ELEC,UNITED ORD LOT UNITED 4,5600 Bessie Coleman Dr,,Chicago,IL,60666,,888-758-4389,T,03/20/2023,TEMPORARILY UNAVAILABLE (Public),24 hours daily,,,,,,2,,,ChargePoint Network,http://www.chargepoint.com/,GPS,41.98125,-87.888829,04/12/2023,04/11/2023 07:14:59 PM +0000,,,,01/27/2021,,,,,"(41.98125, -87.888829)"
166721,ELEC,Jewel Osco 375 Randall Rd South Elgin,375 Randall Rd,,South Elgin,IL,60177,,888-264-2208,E,,Public,Mon 5:00am - 10:59pm; Tue 5:00am - 10:59pm; Wed 5:00am - 10:59pm; Thu 5:00am - 10:59pm; Fri 5:00am - 10:59pm; Sat 5:00am - 10:59pm; Sun 5:00am - 10:59pm,,,,,,2,,,Volta,https://voltacharging.com/,GPS,41.986892,-88.339355,04/12/2023,04/11/2023 08:30:26 PM +0000,,,,08/31/2020,,,,,"(41.986892, -88.339355)"
236281,ELEC,PARKING B LOT B FLOOR9 #2,240 E Ontario St,,Chicago,IL,60611,,888-758-4389,E,,Public,24 hours daily,,,,,,2,,,ChargePoint Network,http://www.chargepoint.com/,GPS,41.893564,-87.620899,04/12/2023,04/11/2023 07:06:08 PM +0000,,,,11/18/2022,,,,,"(41.893564, -87.620899)"
114173,ELEC,Super 8 O'Hare Elk Grove - Tesla Destination,2951 Touhy Ave,,Elk Grove Village,IL,60007,,847-827-3133  877-798-3752,E,,Public,,,,,,,3,,,Tesla Destination,https://www.tesla.com/destination-charging,200-8,42.0072885,-87.9359308,10/06/2022,01/18/2023 09:15:20 AM +0000,P,,,12/07/2017,,,,,"(42.0072885, -87.9359308)"
229595,ELEC,119th St Parking Lot,1515 119th St,,Whiting,IN,46394,,833-692-6787,E,,Public - Credit card at all times,Contact station for hours of availability.,A ANDROID_PAY APPLE_PAY CREDIT D M,,,,,1,,,AMPUP,https://ampup.io/,200-9,41.679656,-87.492228,10/11/2022,02/14/2023 09:54:11 AM +0000,P,,,09/15/2022,,,,,"(41.679656, -87.492228)"
174584,ELEC,GVC PARKING G 02,250 S Grove Ave,,Elgin,IL,60120,,888-758-4389,E,,Public,24 hours daily,,,,,,2,,,ChargePoint Network,http://www.chargepoint.com/,GPS,42.031647,-88.278775,04/12/2023,04/11/2023 07:08:14 PM +0000,,,,01/27/2021,,,,,"(42.031647, -88.278775)"
237382,ELEC,COMED CSD-F-T,7601 S Lawndale Ave,,Chicago,IL,60652,,888-758-4389,E,,Public,24 hours daily,,,,,,2,,,ChargePoint Network,http://www.chargepoint.com/,GPS,41.754652,-87.713867,04/12/2023,04/11/2023 07:07:14 PM +0000,,,,12/08/2022,,,,,"(41.754652, -87.713867)"
235113,ELEC,THE COOPER GATEWAY,720 S Wells St,,Chicago,IL,60607,,888-758-4389,E,,Public,24 hours daily,,,,,,2,,,ChargePoint Network,http://www.chargepoint.com/,GPS,41.87256,-87.633911,04/12/2023,04/11/2023 07:13:27 PM +0000,,,,10/26/2022,,,,,"(41.87256, -87.633911)"
163490,ELEC,WILLCOUNTYGREEN HEALTH DEPT 1,1106 Neal Avenue,,Joliet,IL,60433,,888-758-4389,E,,Public,24 hours daily,,,,,,2,,,ChargePoint Network,http://www.chargepoint.com/,GPS,41.504652,-88.068491,04/12/2023,04/11/2023 07:23:20 PM +0000,,,,06/19/2020,,,,,"(41.504652, -88.068491)"
237399,ELEC,COMED CSD-F-K,7601 S Lawndale Ave,,Chicago,IL,60652,,888-758-4389,E,,Public,24 hours daily,,,,,,2,,,ChargePoint Network,http://www.chargepoint.com/,GPS,41.754723,-87.713628,04/12/2023,04/11/2023 07:09:21 PM +0000,,,,12/08/2022,,,,,"(41.754723, -87.713628)"
170320,ELEC,"Meijer Oswego (Oswego, IL)",2700 US-34,,OSWEGO,IL,60543,,833-632-2778,E,,Public,24 hours daily,,,,,,,4,,Electrify America,https://www.electrifyamerica.com/,GPS,41.70053,-88.31163,04/12/2023,04/11/2023 07:43:29 PM +0000,,,,12/18/2020,,,,,"(41.70053, -88.31163)"
190355,ELEC,FEST FOODS SOM1,6120 31st St,,Kenosha,WI,53144,,888-758-4389,E,,Public,24 hours daily,,,,,,2,,,ChargePoint Network,http://www.chargepoint.com/,GPS,42.61206,-87.880011,04/12/2023,04/11/2023 07:08:05 PM +0000,,,,05/29/2021,,,,,"(42.61206, -87.880011)"
194566,ELEC,Jewel Osco #3345 Roosevelt and Wabash,1224 South Wabash,,Chicago,IL,60605,,888-264-2208,E,,Public,Mon 5:00am - 10:59pm; Tue 5:00am - 10:59pm; Wed 5:00am - 10:59pm; Thu 5:00am - 10:59pm; Fri 5:00am - 10:59pm; Sat 5:00am - 10:59pm; Sun 5:00am - 10:59pm,,,,,,2,,,Volta,https://voltacharging.com/,GPS,41.867041,-87.6262505,04/12/2023,04/11/2023 08:29:46 PM +0000,,,,08/26/2021,,,,,"(41.867041, -87.6262505)"
206921,ELEC,IL TOLLWAY DEKALB OASIS WB,Dekalb Oasis WB,,DeKalb,IL,60115,,888-758-4389,E,,Public,24 hours daily,,,,,,1,,,ChargePoint Network,http://www.chargepoint.com/,GPS,41.900604,-88.73998,04/12/2023,04/11/2023 07:32:39 PM +0000,,,,02/23/2022,,,,,"(41.900604, -88.73998)"
76986,ELEC,VALPARAISO MICHIGAN LOT,153 Michigan Ave,,Valparaiso,IN,46383,,888-758-4389,E,,Public,24 hours daily,,,,,,2,,,ChargePoint Network,http://www.chargepoint.com/,GPS,41.467198,-87.058371,04/12/2023,04/11/2023 07:07:18 PM +0000,,,,07/15/2016,,,,,"(41.467198, -87.058371)"
123051,ELEC,"Target T0843 - Hodgkins, IL",9250 Joliet Rd,,Hodgkins,IL,60525,,833-632-2778,E,,Public,24 hours daily,,,,,,1,3,,Electrify America,https://www.electrifyamerica.com/,GPS,41.78151,-87.86105,04/12/2023,04/11/2023 07:44:08 PM +0000,,,,05/28/2019,,,,,"(41.78151, -87.86105)"
237412,ELEC,COMED JOL-F-G,1910 S Briggs St,,Joliet,IL,60433,,888-758-4389,E,,Public,24 hours daily,,,,,,2,,,ChargePoint Network,http://www.chargepoint.com/,GPS,41.493136,-88.036051,04/12/2023,04/11/2023 07:12:20 PM +0000,,,,12/08/2022,,,,,"(41.493136, -88.036051)"
49307,E85,Thorntons #19,1118 W Touhy Ave,,Park Ridge,IL,60068,,847-692-5559,E,,Public - Credit card at all times,24 hours daily,A Cash Checks D M V Voyager Wright_Exp,,,,,,,,,,200-9,42.01102,-87.839857,09/14/2022,02/14/2023 09:54:11 AM +0000,P,,,12/15/2016,,,,true,"(42.01102, -87.839857)"
253746,ELEC,Woodgrove Festival Shopping Mall,1001 75th St,,Woodridge,IL,60517,,877-455-3833,E,,Public,24 hours daily,,,,,,,6,,eVgo Network,https://www.evgo.com/,GPS,41.7504,-88.01581,04/11/2023,04/11/2023 06:56:33 PM +0000,,,,02/09/2023,,,,,"(41.7504, -88.01581)"
228139,ELEC,Walgreens,12 N Northwest Hwy,,Palatine,IL,60067,,877-455-3833,E,,Public,24 hours daily,,,,,,,1,,eVgo Network,https://www.evgo.com/,GPS,42.110582,-88.034787,04/11/2023,04/11/2023 06:55:50 PM +0000,,,,03/07/2018,,,,,"(42.110582, -88.034787)"
192961,ELEC,ST 1400 & 1450 TOWER 2 LOWER B,1450 American Ln,,Schaumburg,IL,60173,,888-758-4389,E,,Public,24 hours daily,,,,,,2,,,ChargePoint Network,http://www.chargepoint.com/,GPS,42.045324,-88.043961,04/12/2023,04/11/2023 07:10:01 PM +0000,,,,07/20/2021,,,,,"(42.045324, -88.043961)"
238813,ELEC,1001 Main Street (US-22E-UX3-3),1001 Main Street,,Lemont,IL,60439,,866-576-1495,E,,Public,24 hours daily,A ACCOUNT_BALANCE D M V,,,,,1,,,RIVIAN_WAYPOINTS,https://rivian.com/experience/charging,GPS,41.67949,-87.98667,04/12/2023,04/11/2023 08:26:11 PM +0000,,,,12/27/2022,,,,,"(41.67949, -87.98667)"
153795,ELEC,Tinseltown USA North Aurora,320 S Lincolnway St,,North Aurora,IL,60542,,888-264-2208,E,,Public,Mon 5:00am - 10:59pm; Tue 5:00am - 10:59pm; Wed 5:00am - 10:59pm; Thu 5:00am - 10:59pm; Fri 5:00am - 10:59pm; Sat 5:00am - 10:59pm; Sun 5:00am - 10:59pm,,,,,,2,,,Volta,https://voltacharging.com/,GPS,41.791653,-88.324257,04/12/2023,04/11/2023 08:30:27 PM +0000,,,,02/14/2020,,,,,"(41.791653, -88.324257)"
180624,ELEC,PEOPLES GAS EV1,4341 W 35th Pl Logistics Support,,Chicago,IL,60646,,888-758-4389,E,,Public,24 hours daily,,,,,,2,,,ChargePoint Network,http://www.chargepoint.com/,GPS,41.989385,-87.730277,04/12/2023,04/11/2023 07:23:09 PM +0000,,,,01/27/2021,,,,,"(41.989385, -87.730277)"
51628,E85,Thorntons #115,800 Northwest Hwy,,Cary,IL,60013,,847-516-2210,E,,Public,24 hours daily,A Cash Checks D M V Voyager Wright_Exp,,,,,,,,,,200-8,42.218188,-88.258297,09/14/2022,02/14/2023 09:54:11 AM +0000,P,,,02/15/2017,,,,true,"(42.218188, -88.258297)"
212704,ELEC,LIVING THE 450 THE 450-2,450 Woodmoor Dr,,Lombard,IL,60148,,888-758-4389,E,,Public,24 hours daily,,,,,,2,,,ChargePoint Network,http://www.chargepoint.com/,GPS,41.84936,-88.02478,04/12/2023,04/11/2023 07:27:49 PM +0000,,,,03/25/2022,,,,,"(41.84936, -88.02478)"
92132,E85,Gas N Wash - Shorewood,1201 W Jefferson St,,Shorewood,IL,60404,,815-280-6590,E,,Public,24 hours daily,A Cash D Debit M V Wright_Exp,,,,,,,,,,200-9,41.523279,-88.110736,11/10/2022,02/14/2023 09:54:11 AM +0000,P,,,02/15/2018,,,,false,"(41.523279, -88.110736)"
226717,ELEC,Hampton Inn & Suites Aurora,2423 Bushwood Dr,To the left of the main entrance.||,Aurora,IL,60506,,888-998-2546,E,,Public,,,,,,,2,,,Blink Network,http://www.blinkcharging.com/,GPS,41.791222,-88.376671,04/11/2023,04/11/2023 06:59:32 PM +0000,,,,08/30/2022,,,,,"(41.791222, -88.376671)"
187497,E85,MCC Chicago,71 W Van Buren,Garage,Chicago,IL,60605,,,E,,Private,,,,,,,,,,,,GPS,41.876579,-87.630456,07/12/2022,02/14/2023 09:54:11 AM +0000,FG,12,Department of Justice,01/15/2021,,,,false,"(41.876579, -87.630456)"
52232,E85,Speedway #1020,10950 Broadway,,Crown Point,IN,46307,,219-663-4285,E,,Public,24 hours daily,A Cash D M V Voyager Wright_Exp,,,,,,,,,,GPS,41.419153,-87.334567,11/10/2022,02/14/2023 09:54:11 AM +0000,P,,,06/15/2013,,,,false,"(41.419153, -87.334567)"
202661,ELEC,209 ELMHURST ADDISON AVE,135 N Addison Ave,,Elmhurst,IL,60126,,888-758-4389,E,,Public,24 hours daily,,,,,,2,,,ChargePoint Network,http://www.chargepoint.com/,GPS,41.901407,-87.940986,04/12/2023,04/11/2023 07:12:08 PM +0000,,,,12/16/2021,,,,,"(41.901407, -87.940986)"
230670,ELEC,"Hampton, Lenzini & Renwick, Inc.",380 Shepard Dr,,Elgin,IL,60123,,833-692-6787,E,,Private,Contact station for hours of availability.,,,,,,2,,,AMPUP,https://ampup.io/,200-9,42.023546,-88.31603,10/11/2022,02/14/2023 09:54:11 AM +0000,P,,,09/15/2022,,,,,"(42.023546, -88.31603)"
215090,ELEC,IL TOLLWAY HINSDALE SB,5800 Tri-State Tollway,,Hinsdale,IL,60521,,888-758-4389,E,,Public,24 hours daily,,,,,,1,,,ChargePoint Network,http://www.chargepoint.com/,GPS,41.783146,-87.909,04/12/2023,04/11/2023 07:33:42 PM +0000,,,,04/28/2022,,,,,"(41.783146, -87.909)"
33088,E85,City of Chicago FS#7,10000 W Montrose Ave,O'Hare Airport,Chicago,IL,60666,,,E,,Private - Government only,,,,,,,,,,,,GPS,41.95940310555005,-87.83946993386843,11/10/2022,02/14/2023 09:54:11 AM +0000,LG,,,06/15/2008,,,,false,"(41.95940310555005, -87.83946993386843)"
237459,ELEC,COMED ELG-F-N-01,350 Second St,,Elgin,IL,60123,,888-758-4389,E,,Public,24 hours daily,,,,,,2,,,ChargePoint Network,http://www.chargepoint.com/,GPS,42.024742,-88.32289,04/12/2023,04/11/2023 07:21:03 PM +0000,,,,12/08/2022,,,,,"(42.024742, -88.32289)"
172433,ELEC,DISTRICT 214 FVEC 2,Unnamed Road,,Arlington Heights,IL,60005,,888-758-4389,E,,Public,24 hours daily,,,,,,2,,,ChargePoint Network,http://www.chargepoint.com/,GPS,42.047295,-87.973307,04/12/2023,04/11/2023 07:04:03 PM +0000,,,,01/27/2021,,,,,"(42.047295, -87.973307)"
238378,ELEC,1 E 8th St. Garage,1 East 8th Street,,Chicago,IL,60605,,855-223-5351,E,,Public,24 hours daily,A D M V,,,,,2,,,FLASH,https://www.flashparking.com/products/diversify-parking-revenue/ev-charging-as-a-revenue-stream/,GPS,41.87172,-87.62745,04/12/2023,04/11/2023 08:31:19 PM +0000,,,,11/15/2022,,,,,"(41.87172, -87.62745)"
165521,E85,Kwik Trip,408 S Wright St,,Delavan,WI,53115,,262-728-5760,E,,Public,24 hours daily,A ANDROID_PAY APPLE_PAY Cash Checks CREDIT D M V Voyager Wright_Exp,,,,,,,,,,200-8,42.628836,-88.625835,05/05/2022,02/14/2023 09:54:11 AM +0000,P,,,08/26/2020,,,,true,"(42.628836, -88.625835)"
182448,ELEC,CITY HALL NORTH CITY HALL,414 Main Street,,Hobart,IN,46342,,888-758-4389,E,,Public,24 hours daily,,,,,,2,,,ChargePoint Network,http://www.chargepoint.com/,GPS,41.53097,-87.25442,04/12/2023,04/11/2023 07:07:38 PM +0000,,,,01/27/2021,,,,,"(41.53097, -87.25442)"
98631,E85,Thorntons #322,3450 S California Ave,,Chicago,IL,60632,,773-523-2030,E,,Public,24 hours daily,A Cash D Debit M V Voyager Wright_Exp,,,,,,,,,,200-8,41.830608,-87.695109,11/10/2022,02/14/2023 09:54:11 AM +0000,P,,,05/15/2018,,,,false,"(41.830608, -87.695109)"
30753,E85,Meijer Gas #170,10240 Indianapolis Blvd,,Highland,IN,46322,,219-934-2129,E,,Public,24 hours daily,A Cash Checks D M V Voyager Wright_Exp,,,,,,,,,,GPS,41.5280837,-87.4712663,11/10/2022,02/14/2023 09:54:11 AM +0000,P,,,02/15/2007,,,,false,"(41.5280837, -87.4712663)"
198090,ELEC,155 N WACKER DR P1,155 N Upper Wacker Dr,,Chicago,IL,60606,,888-758-4389,E,,Public,24 hours daily,,,,,,2,,,ChargePoint Network,http://www.chargepoint.com/,GPS,41.884913,-87.636437,04/12/2023,04/11/2023 07:30:31 PM +0000,,,,10/22/2021,,,,,"(41.884913, -87.636437)"
186341,ELEC,Oak Lawn Commons,4101 W 95th St.,,Oak Lawn,IL,60453,,888-264-2208,E,,Public,Mon 5:00am - 10:59pm; Tue 5:00am - 10:59pm; Wed 5:00am - 10:59pm; Thu 5:00am - 10:59pm; Fri 5:00am - 10:59pm; Sat 5:00am - 10:59pm; Sun 5:00am - 10:59pm,,,,,,2,,,Volta,https://voltacharging.com/,GPS,41.7196515,-87.723332,04/12/2023,04/11/2023 08:28:53 PM +0000,,,,03/15/2021,,,,,"(41.7196515, -87.723332)"
204832,ELEC,Schaumburg Corners,16 E Golf Road,,Schaumburg,IL,60173,,888-264-2208,E,,Public,Mon 5:00am - 10:59pm; Tue 5:00am - 10:59pm; Wed 5:00am - 10:59pm; Thu 5:00am - 10:59pm; Fri 5:00am - 10:59pm; Sat 5:00am - 10:59pm; Sun 5:00am - 10:59pm,,,,,,2,,,Volta,https://voltacharging.com/,GPS,42.051433656,-88.079006019,04/12/2023,04/11/2023 08:28:59 PM +0000,,,,01/11/2022,,,,,"(42.051433656, -88.079006019)"
69176,ELEC,DISTRICT 214 JHHS 1,1900 E Thomas St,,Arlington Heights,IL,60004,,888-758-4389,E,,Public,24 hours daily,,,,,,2,,,ChargePoint Network,http://www.chargepoint.com/,GPS,42.103029,-87.959151,04/12/2023,04/11/2023 07:04:48 PM +0000,,,,08/23/2015,,,,,"(42.103029, -87.959151)"
237422,ELEC,COMED LC2-E-HAND,2 Lincoln Centre,,Oakbrook Terrace,IL,60181,,888-758-4389,E,,Public,24 hours daily,,,,,,2,,,ChargePoint Network,http://www.chargepoint.com/,GPS,41.845942,-87.985595,04/12/2023,04/11/2023 07:14:16 PM +0000,,,,12/08/2022,,,,,"(41.845942, -87.985595)"
237452,ELEC,COMED CND-E-SW-01,3420 n California ave,,Chicago,IL,60618,,888-758-4389,E,,Public,24 hours daily,,,,,,2,,,ChargePoint Network,http://www.chargepoint.com/,GPS,41.94302,-87.699425,04/12/2023,04/11/2023 07:20:45 PM +0000,,,,12/08/2022,,,,,"(41.94302, -87.699425)"
70908,LPG,U-Haul,4055 N Broadway St,,Chicago,IL,60613,,773-871-7155,E,,Public,"7am-7pm M-Th and Sat, 7am-8pm F, 9am-5pm Sun",A Cash D M V,,,,,,,,,,200-9,41.955969,-87.651256,02/13/2023,02/14/2023 09:54:11 AM +0000,P,,,11/02/2015,,,true,,"(41.955969, -87.651256)"
251092,E85,BP,339 Roosevelt Rd,,Glen Ellyn,IL,60137,,630-790-3901,E,,Public,24 hours daily,A Cash D M V,,,,,,,,,,200-8,41.85885,-88.07566,02/13/2023,02/14/2023 09:54:11 AM +0000,P,,,01/19/2023,,,,false,"(41.85885, -88.07566)"
73190,E85,Shell,2501 Meacham Rd,,Schaumburg,IL,60173,,847-397-7110,E,,Public,24 hours daily,A Cash D Debit M V Voyager Wright_Exp,,,,,,,,,,200-9,42.068676,-88.043382,11/10/2022,02/14/2023 09:54:11 AM +0000,P,,,01/15/2016,,,,false,"(42.068676, -88.043382)"
146630,ELEC,300PARK 300 PARK #2,300 Park Blvd,,Itasca,IL,60143,,888-758-4389,E,,Public,24 hours daily,,,,,,2,,,ChargePoint Network,http://www.chargepoint.com/,GPS,41.99021,-88.021897,04/12/2023,04/11/2023 07:19:29 PM +0000,,,,10/05/2019,,,,,"(41.99021, -88.021897)"
237429,ELEC,COMED CSD-F-M,7601 S Lawndale Ave,,Chicago,IL,60652,,888-758-4389,E,,Public,24 hours daily,,,,,,2,,,ChargePoint Network,http://www.chargepoint.com/,GPS,41.754648,-87.713418,04/12/2023,04/11/2023 07:16:52 PM +0000,,,,12/08/2022,,,,,"(41.754648, -87.713418)"
256450,ELEC,WORLD HYUNDAI LEVEL 3-02,5337 Miller Cir Dr,,Matteson,IL,60443,,888-758-4389,E,,Public,24 hours daily,,,,,,,1,,ChargePoint Network,http://www.chargepoint.com/,GPS,41.501194,-87.74434,04/12/2023,04/11/2023 07:37:52 PM +0000,,,,03/17/2023,,,,,"(41.501194, -87.74434)"
102167,ELEC,Village Crossing - Tesla Supercharger,5507 Touhy Avenue,,Skokie,IL,60077,,877-798-3752,E,,Public,24 hours daily; for Tesla use only,,,,,,,20,,Tesla,https://www.tesla.com/supercharger,200-8,42.008864,-87.76335,10/03/2022,12/01/2022 11:40:26 AM +0000,P,,,04/01/2018,,,,,"(42.008864, -87.76335)"
33072,E85,Mobil - Midway,8145 S Pulaski,,Chicago,IL,60652,,773-585-8912,E,,Public - Credit card at all times,24 hours daily,A Cash D FuelMan M V Voyager Wright_Exp,,,,,,,,,,200-9,41.744262,-87.72134,09/14/2022,02/14/2023 09:54:11 AM +0000,P,,,05/15/2008,,,,false,"(41.744262, -87.72134)"
255198,ELEC,Westmont Fire Lot,6015 S. Cass,,Westmont,IL,60559,,800-663-5633,E,,Public,,,,,,,1,,,SemaCharge Network,https://semaconnect.com/,GPS,41.778371,-87.974288,04/12/2023,04/11/2023 07:00:29 PM +0000,,,,06/28/2022,,,,,"(41.778371, -87.974288)"
235668,ELEC,6750 ENTRTANCE WEST,6750 W Grand Ave,,Chicago,IL,60707,,888-758-4389,E,,Public,24 hours daily,,,,,,,1,,ChargePoint Network,http://www.chargepoint.com/,GPS,41.923835,-87.794442,04/12/2023,04/11/2023 07:36:21 PM +0000,,,,11/04/2022,,,,,"(41.923835, -87.794442)"
228877,ELEC,LF CITY HALL FOREST LOT #1,203 Northgate St,,Lake Forest,IL,60045,,888-758-4389,E,,Public,24 hours daily,,,,,,2,,,ChargePoint Network,http://www.chargepoint.com/,GPS,42.252276,-87.841794,04/12/2023,04/11/2023 07:35:42 PM +0000,,,,09/22/2022,,,,,"(42.252276, -87.841794)"
251709,ELEC,Police Station,124 N East St,,Crown Point,IN,46307,,219-808-1816,E,,Public,Contact station for hours of availability,A ANDROID_PAY APPLE_PAY CREDIT D M,,,,,2,,,AMPUP,https://ampup.io/,GPS,41.418802159,-87.362600755,02/13/2023,02/14/2023 09:54:11 AM +0000,LG,,,11/09/2022,,,,,"(41.418802159, -87.362600755)"
30760,E85,Meijer Gas #165,505 W Lincoln Hwy,,Merrillville,IN,46410,,219-650-3729,E,,Public,24 hours daily,A Cash Checks D M V Voyager Wright_Exp,,,,,,,,,,200-9,41.470147,-87.343218,11/10/2022,02/14/2023 09:54:11 AM +0000,P,,,01/15/2007,,,,false,"(41.470147, -87.343218)"
234677,ELEC,P&G GCFC P&G EV #3,222 airport road,,Morris,IL,60450,,888-758-4389,E,,Public,24 hours daily,,,,,,2,,,ChargePoint Network,http://www.chargepoint.com/,GPS,41.436787,-88.4252,04/12/2023,04/11/2023 07:30:35 PM +0000,,,,10/20/2022,,,,,"(41.436787, -88.4252)"
152184,ELEC,Northbrook Court California Pizza Kitchen,2171 Northbrook Court,,Northbrook,IL,60062,,888-264-2208,E,,Public,Mon 5:00am - 10:59pm; Tue 5:00am - 10:59pm; Wed 5:00am - 10:59pm; Thu 5:00am - 10:59pm; Fri 5:00am - 10:59pm; Sat 5:00am - 10:59pm; Sun 5:00am - 10:59pm,,,,,,2,,,Volta,https://voltacharging.com/,GPS,42.150978,-87.8174635,04/12/2023,04/11/2023 08:29:04 PM +0000,,,,01/20/2020,,,,,"(42.150978, -87.8174635)"
64783,ELEC,EVCP 1 GENERALSERVICES,"449 Fremont Street, Whitewater, WI",,Whitewater,WI,53190,,888-758-4389,E,,Public,24 hours daily,,,,,,1,,,ChargePoint Network,http://www.chargepoint.com/,GPS,42.843574,-88.736127,04/12/2023,04/11/2023 07:05:05 PM +0000,,,,12/16/2014,,,,,"(42.843574, -88.736127)"
88750,E85,Thorntons #325,1141 E 162nd St,,South Holland,IL,60473,,708-331-2490,E,,Public,24 hours daily,A Cash D Debit M V,,,,,,,,,,200-8,41.600796,-87.588129,11/10/2022,02/14/2023 09:54:11 AM +0000,P,,,12/15/2017,,,,false,"(41.600796, -87.588129)"
35095,E85,Kwik Trip #485,6 W Hidden Trail,"Pump 17 and 18, on Hwy 67/12, right in front of Hampton Inn, to right of McDonald's",Elkhorn,WI,53121,,262-723-7179,E,,Public,24 hours daily,A ANDROID_PAY APPLE_PAY Cash Checks CREDIT D M V Voyager Wright_Exp,,,,,,,,,,GPS,42.694575,-88.54249,05/05/2022,02/20/2023 01:33:35 PM +0000,P,,,10/22/2009,,,,false,"(42.694575, -88.54249)"
205433,ELEC,Cityfront Place Parking Garage - Floor 2 Left,400 N. McClurg Court,Located on the 2nd floor of the parking garage on the south side of the elevators. This is the left charging station.,Chicago,IL,60611,,800-663-5633,T,12/20/2022,TEMPORARILY UNAVAILABLE (Public),,,,,,,1,,,SemaCharge Network,https://semaconnect.com/,GPS,41.889189,-87.618101,04/11/2023,04/11/2023 06:58:33 PM +0000,,,,12/22/2021,,,,,"(41.889189, -87.618101)"
237478,ELEC,COMED S1-2,3500 N California Ave,,Chicago,IL,60618,,888-758-4389,E,,Public,24 hours daily,,,,,,2,,,ChargePoint Network,http://www.chargepoint.com/,GPS,41.943947,-87.699755,04/12/2023,04/11/2023 07:21:26 PM +0000,,,,12/08/2022,,,,,"(41.943947, -87.699755)"
166818,ELEC,2205 POINT BLVD STATION 2,2205 Point Blvd,,Elgin,IL,60123,,888-758-4389,E,,Public,24 hours daily,,,,,,2,,,ChargePoint Network,http://www.chargepoint.com/,GPS,42.08035,-88.331523,04/12/2023,04/11/2023 07:24:33 PM +0000,,,,09/12/2020,,,,,"(42.08035, -88.331523)"
237191,ELEC,DEKALB SW 1,1510 E Gurler Rd,,DeKalb,IL,60115,,888-758-4389,E,,Public,24 hours daily,,,,,,2,,,ChargePoint Network,http://www.chargepoint.com/,GPS,41.890888,-88.733605,04/12/2023,04/11/2023 07:36:51 PM +0000,,,,12/05/2022,,,,,"(41.890888, -88.733605)"
21216,LPG,Hicksgas,1705 N McKinley Ave,,Rensselaer,IN,47978,,219-866-7322,E,,Public - Call ahead,8am-5pm M-F,Cash D M V,,,,,,,,,,200-9,40.952621,-87.150883,09/14/2022,02/14/2023 09:54:11 AM +0000,P,,,01/11/2002,,,false,,"(40.952621, -87.150883)"
147500,ELEC,MEIJER STORES 228 RLLG MEAD 2,1301 Meijer Dr,,Rolling Meadows,IL,60008,,888-758-4389,E,,Public,24 hours daily,,,,,,2,,,ChargePoint Network,http://www.chargepoint.com/,GPS,42.04827,-87.994591,04/12/2023,04/11/2023 07:20:04 PM +0000,,,,11/05/2019,,,,,"(42.04827, -87.994591)"
237544,ELEC,COMED CSE-F-NW-03,4401 W 135th St,,Crestwood,IL,60445,,888-758-4389,E,,Public,24 hours daily,,,,,,2,,,ChargePoint Network,http://www.chargepoint.com/,GPS,41.646815,-87.729571,04/12/2023,04/11/2023 07:34:05 PM +0000,,,,12/09/2022,,,,,"(41.646815, -87.729571)"
52230,E85,Speedway #6917,417 S Lincolnway,,North Aurora,IL,60542,,630-892-2107,E,,Public - Credit card at all times,24 hours daily,A Cash D M V Voyager Wright_Exp,,,,,,,,,,200-9,41.789426,-88.320989,10/11/2022,02/14/2023 09:54:11 AM +0000,P,,,06/15/2013,,,,false,"(41.789426, -88.320989)"
237352,ELEC,COMED UPA-E-N-01,25000 S Governors Hwy,,Monee,IL,60449,,888-758-4389,E,,Public,24 hours daily,,,,,,2,,,ChargePoint Network,http://www.chargepoint.com/,GPS,41.429192,-87.74146,04/12/2023,04/11/2023 07:03:31 PM +0000,,,,12/08/2022,,,,,"(41.429192, -87.74146)"
166725,ELEC,Jewel Osco 5343 N Broadway Chicago,5343 N Broadway,,Chicago,IL,60640,,888-264-2208,E,,Public,Mon 5:00am - 10:59pm; Tue 5:00am - 10:59pm; Wed 5:00am - 10:59pm; Thu 5:00am - 10:59pm; Fri 5:00am - 10:59pm; Sat 5:00am - 10:59pm; Sun 5:00am - 10:59pm,,,,,,2,,,Volta,https://voltacharging.com/,GPS,41.978844,-87.659321,04/12/2023,04/11/2023 08:29:58 PM +0000,,,,08/31/2020,,,,,"(41.978844, -87.659321)"
172580,ELEC,EVANSTON CAMPUS SOUTH GARAGE 3,1850 Campus Dr,,Evanston,IL,60208,,888-758-4389,E,,Public,24 hours daily,,,,,,2,,,ChargePoint Network,http://www.chargepoint.com/,GPS,42.050514,-87.673331,04/12/2023,04/11/2023 07:10:52 PM +0000,,,,01/27/2021,,,,,"(42.050514, -87.673331)"
85484,ELEC,ESB LAW FIRM  ESB LAW STATION,440 Central Ave,,Highland Park,IL,60035,,888-758-4389,T,09/09/2022,TEMPORARILY UNAVAILABLE (Public),24 hours daily,,,,,,2,,,ChargePoint Network,http://www.chargepoint.com/,GPS,42.186114,-87.796535,04/12/2023,04/11/2023 07:10:04 PM +0000,,,,06/09/2017,,,,,"(42.186114, -87.796535)"
116856,ELEC,WSB DARIEN,8001 Cass Avenue,,Darien,IL,60561,,888-758-4389,E,,Public,24 hours daily,,,,,,2,,,ChargePoint Network,http://www.chargepoint.com/,GPS,41.741968,-87.973128,04/12/2023,04/11/2023 07:10:11 PM +0000,,,,01/08/2019,,,,,"(41.741968, -87.973128)"
46827,ELEC,Glendale Nissan,484 North Ave,,Glendale Heights,IL,60139,,630-469-6100,E,,Private,,,,,,,1,,,Non-Networked,,200-9,41.904021,-88.068043,06/09/2020,02/15/2023 04:45:41 PM +0000,P,,,01/31/2012,,,,,"(41.904021, -88.068043)"
237385,ELEC,COMED LIB-F-E-04,1500 Franklin Blvd,,Libertyville,IL,60048,,888-758-4389,E,,Public,24 hours daily,,,,,,2,,,ChargePoint Network,http://www.chargepoint.com/,GPS,42.302095,-88.007091,04/12/2023,04/11/2023 07:07:22 PM +0000,,,,12/08/2022,,,,,"(42.302095, -88.007091)"
235665,ELEC,6750 ENTRTANCE EAST,6750 W Grand Ave,,Chicago,IL,60707,,888-758-4389,E,,Public,24 hours daily,,,,,,,1,,ChargePoint Network,http://www.chargepoint.com/,GPS,41.923867,-87.794421,04/12/2023,04/11/2023 07:36:21 PM +0000,,,,11/04/2022,,,,,"(41.923867, -87.794421)"
150298,ELEC,WINNETKA 820 ELM STREET,820 Elm St,,Winnetka,IL,60093,,888-758-4389,E,,Public,24 hours daily,,,,,,2,,,ChargePoint Network,http://www.chargepoint.com/,GPS,42.10574,-87.73594,04/12/2023,04/11/2023 07:20:49 PM +0000,,,,12/18/2019,,,,,"(42.10574, -87.73594)"
237378,ELEC,COMED CTC-E-E-01,3795 S Iron St,,Chicago,IL,60609,,888-758-4389,E,,Public,24 hours daily,,,,,,2,,,ChargePoint Network,http://www.chargepoint.com/,GPS,41.825293,-87.659598,04/12/2023,04/11/2023 07:07:03 PM +0000,,,,12/08/2022,,,,,"(41.825293, -87.659598)"
151766,ELEC,Fox Run Square,1212 S Naper Blvd,,Naperville,IL,60540,,888-264-2208,E,,Public,Mon 5:00am - 10:59pm; Tue 5:00am - 10:59pm; Wed 5:00am - 10:59pm; Thu 5:00am - 10:59pm; Fri 5:00am - 10:59pm; Sat 5:00am - 10:59pm; Sun 5:00am - 10:59pm,,,,,,2,,,Volta,https://voltacharging.com/,GPS,41.7502685,-88.113358,04/12/2023,04/11/2023 08:30:24 PM +0000,,,,04/16/2019,,,,,"(41.7502685, -88.113358)"
182359,ELEC,KOHL'S - CHPT 0229 HIGHLAND,10349 Indianapolis Blvd,,Highland,IN,46322,,888-758-4389,E,,Public,24 hours daily,,,,,,2,,,ChargePoint Network,http://www.chargepoint.com/,GPS,41.524673,-87.470431,04/12/2023,04/11/2023 07:04:21 PM +0000,,,,01/27/2021,,,,,"(41.524673, -87.470431)"
254047,ELEC,HYUNDAI NORTH CPE250 A,901 S Milwaukee Ave,,Libertyville,IL,60048,,888-758-4389,E,,Public,Mon 6:00am - 12:00am; Tue 6:00am - 12:00am; Wed 6:00am - 12:00am; Thu 6:00am - 12:00am; Fri 6:00am - 12:00am; Sat 6:00am - 12:00am; Sun 6:00am - 12:00am,,,,,,,1,,ChargePoint Network,http://www.chargepoint.com/,GPS,42.271931,-87.952431,04/12/2023,04/11/2023 07:37:49 PM +0000,,,,02/15/2023,,,,,"(42.271931, -87.952431)"
190841,ELEC,ADV AURORA PLP1250-CRG04,12500 Aurora Drive,,Pleasant Prairie,WI,53158,,888-758-4389,E,,Public,24 hours daily,,,,,,2,,,ChargePoint Network,http://www.chargepoint.com/,GPS,42.526709,-87.959587,04/12/2023,04/11/2023 07:28:36 PM +0000,,,,06/09/2021,,,,,"(42.526709, -87.959587)"
164418,ELEC,ABM OLD POST OFFICE,404 W Harrison St,,Chicago,IL,60607,,888-758-4389,E,,Public,24 hours daily,,,,,,2,,,ChargePoint Network,http://www.chargepoint.com/,GPS,41.875714,-87.638725,04/12/2023,04/11/2023 07:21:01 PM +0000,,,,07/22/2020,,,,,"(41.875714, -87.638725)"
170677,ELEC,BMW NORTHFIELD STATION 02,770 Frontage Rd,,Northfield,IL,60093,,888-758-4389,E,,Public,24 hours daily,,,,,,2,,,ChargePoint Network,http://www.chargepoint.com/,GPS,42.111489,-87.776132,04/12/2023,04/11/2023 07:03:48 PM +0000,,,,12/31/2020,,,,,"(42.111489, -87.776132)"
173659,ELEC,HK SHOP 01,12180 77th St,,Bristol,WI,53104,,888-758-4389,E,,Public,24 hours daily,,,,,,1,,,ChargePoint Network,http://www.chargepoint.com/,GPS,42.565069,-87.954692,04/12/2023,04/11/2023 07:15:33 PM +0000,,,,01/27/2021,,,,,"(42.565069, -87.954692)"
47161,ELEC,Napleton Nissan - Schererville,1301 Indianapolis Blvd,,Schererville,IN,46375,,,E,,Public - Call ahead,Dealership business hours; contact 219-865-3800 for more information,,,,,,1,,,Non-Networked,,GPS,41.497662,-87.470113,06/09/2020,02/15/2023 04:45:41 PM +0000,P,,,01/31/2012,,,,,"(41.497662, -87.470113)"
77960,ELEC,PARK FOREST EVS PARK FOREST EVS,367 artists walk,,Park Forest,IL,60466,,888-758-4389,E,,Public,24 hours daily,,,,,,2,,,ChargePoint Network,http://www.chargepoint.com/,GPS,41.482352,-87.679954,04/12/2023,04/11/2023 07:05:33 PM +0000,,,,08/24/2016,,,,,"(41.482352, -87.679954)"
237368,ELEC,COMED JOL-F-C,1910 S Briggs St,,Joliet,IL,60433,,888-758-4389,E,,Public,24 hours daily,,,,,,2,,,ChargePoint Network,http://www.chargepoint.com/,GPS,41.493601,-88.035807,04/12/2023,04/11/2023 07:05:06 PM +0000,,,,12/08/2022,,,,,"(41.493601, -88.035807)"
236448,ELEC,1809 West Diehl Road (US-DDY-ZSB-4),1809 West Diehl Road,,Naperville,IL,60563,,866-576-1495,E,,Public,24 hours daily,A ACCOUNT_BALANCE D M V,,,,,1,,,RIVIAN_WAYPOINTS,https://rivian.com/experience/charging,GPS,41.8002467,-88.2100406,04/12/2023,04/11/2023 08:26:10 PM +0000,,,,11/21/2022,,,,,"(41.8002467, -88.2100406)"
238804,ELEC,COMED STATION #10,1N301 Swift Rd,,Lombard,IL,60148,,888-758-4389,E,,Public,24 hours daily,,,,,,2,,,ChargePoint Network,http://www.chargepoint.com/,GPS,41.896375,-88.043146,04/12/2023,04/11/2023 07:37:11 PM +0000,,,,12/27/2022,,,,,"(41.896375, -88.043146)"
81650,E85,Thorntons #112,14805 S Cicero Ave,,Oak Forest,IL,60452,,708-535-1348,E,,Public - Credit card at all times,24 hours daily,A Cash D Debit M V Voyager Wright_Exp,,,,,,,,,,200-9,41.622785,-87.736747,09/14/2022,02/14/2023 09:54:11 AM +0000,P,,,02/15/2017,,,,true,"(41.622785, -87.736747)"
224804,ELEC,CLC LOT 7 PARKING LOT 8,19351 W Washington St Parking Lot 8,,Grayslake,IL,60030,,888-758-4389,E,,Public,24 hours daily,,,,,,2,,,ChargePoint Network,http://www.chargepoint.com/,GPS,42.354265,-88.012567,04/12/2023,04/11/2023 07:34:47 PM +0000,,,,08/04/2022,,,,,"(42.354265, -88.012567)"
53412,ELEC,ABT ELECTRONICS ABT #1,1200 Milwaukee Ave,,Glenview,IL,60025,,888-758-4389,E,,Public,24 hours daily,,,,,,2,,,ChargePoint Network,http://www.chargepoint.com/,GPS,42.078903,-87.863167,04/12/2023,04/11/2023 07:03:32 PM +0000,,,,10/15/2013,,,,,"(42.078903, -87.863167)"
240884,ELEC,OAK PARK 1 AVENUE GARAGE 5,720 North Blvd,,Oak Park,IL,60301,,888-758-4389,E,,Public,24 hours daily,,,,,,2,,,ChargePoint Network,http://www.chargepoint.com/,GPS,41.887781,-87.793746,04/12/2023,04/11/2023 07:37:09 PM +0000,,,,01/04/2023,,,,,"(41.887781, -87.793746)"
206170,ELEC,Chicago Ridge Mall,9500 Ridgeland Ave,,Chicago Ridge,IL,60415,,877-455-3833,E,,Public,24 hours daily,,,,,,,6,,eVgo Network,https://www.evgo.com/,GPS,41.7132634,-87.7835516,04/11/2023,04/11/2023 06:56:40 PM +0000,,,,02/11/2022,,,,,"(41.7132634, -87.7835516)"
217223,ELEC,EVERGREEN KIA CUSTOMER CPF 1,9205 S Western Ave,,Chicago,IL,60643,,888-758-4389,E,,Public,24 hours daily,,,,,,1,,,ChargePoint Network,http://www.chargepoint.com/,GPS,41.726091,-87.681831,04/12/2023,04/11/2023 07:33:49 PM +0000,,,,05/08/2022,,,,,"(41.726091, -87.681831)"
194778,ELEC,BOURBMOTOR STATION 1,515 William R Latham Senior Dr,,Bourbonnais,IL,60914,,888-758-4389,E,,Public,24 hours daily,,,,,,2,,,ChargePoint Network,http://www.chargepoint.com/,GPS,41.162212,-87.88792,04/12/2023,04/11/2023 07:29:44 PM +0000,,,,09/01/2021,,,,,"(41.162212, -87.88792)"
123556,ELEC,SP PLUS CORP MCCORMICK 2,2301 S Prairie Ave,,Chicago,IL,60616,,888-758-4389,E,,Public,24 hours daily,,,,,,2,,,ChargePoint Network,http://www.chargepoint.com/,GPS,41.851167,-87.620557,04/12/2023,04/11/2023 07:17:16 PM +0000,,,,06/05/2019,,,,,"(41.851167, -87.620557)"
114158,ELEC,Loews Chicago Hotel - Tesla Destination,455 N Park Dr,,Chicago,IL,60611,,312-840-6600  877-798-3752,E,,Public,,,,,,,3,,,Tesla Destination,https://www.tesla.com/destination-charging,200-9,41.889755,-87.618659,10/06/2022,01/18/2023 09:15:20 AM +0000,P,,,12/01/2015,,,,,"(41.889755, -87.618659)"
50467,ELEC,Libertyville Mitsubishi,1119 S Milwaukee Ave,Located on north side of the building,Libertyville,IL,60048,,,E,,Private,Dealership business hours; for service use only,,,,,,2,,,Non-Networked,,200-9,42.26795,-87.950908,01/10/2023,02/14/2023 09:54:11 AM +0000,P,,,12/15/2012,,,,,"(42.26795, -87.950908)"
258289,ELEC,ELBURN IL ELBURN FIRST ST,2 South First St.,,Elburn,IL,60119,,888-758-4389,E,,Public,24 hours daily,,,,,,2,,,ChargePoint Network,http://www.chargepoint.com/,GPS,41.891937,-88.471686,04/12/2023,04/11/2023 07:38:33 PM +0000,,,,04/08/2023,,,,,"(41.891937, -88.471686)"
174892,ELEC,MOTORWERKS1475 STATION 11,1475 Barrington Rd,,Barrington,IL,60010,,888-758-4389,E,,Public,24 hours daily,,,,,,2,,,ChargePoint Network,http://www.chargepoint.com/,GPS,42.128951,-88.135717,04/12/2023,04/11/2023 07:20:57 PM +0000,,,,01/27/2021,,,,,"(42.128951, -88.135717)"
187966,ELEC,"Walgreens at 180 E Lake St, Bloomingdale",180 E LAKE ST,,BLOOMINGDALE,IL,60108,,888-264-2208,E,,Public,Mon 5:00am - 10:59pm; Tue 5:00am - 10:59pm; Wed 5:00am - 10:59pm; Thu 5:00am - 10:59pm; Fri 5:00am - 10:59pm; Sat 5:00am - 10:59pm; Sun 5:00am - 10:59pm,,,,,,2,,,Volta,https://voltacharging.com/,GPS,41.957172,-88.072434,04/12/2023,04/11/2023 08:30:30 PM +0000,,,,04/19/2021,,,,,"(41.957172, -88.072434)"
145415,E85,Kwik Trip #296,10215 120th Ave,,Pleasant Prairie,WI,53158,,262-857-4105,E,,Public,24 hours daily,A ANDROID_PAY APPLE_PAY Cash Checks CREDIT D M V Voyager Wright_Exp,,,,,,,,,,200-8,42.526052,-87.949224,05/05/2022,02/14/2023 09:54:11 AM +0000,P,,,09/06/2019,,,,true,"(42.526052, -87.949224)"
151875,ELEC,AMC CLASSIC Galewood Crossings 14,5530 W Homer St,,Chicago,IL,60639,,888-264-2208,E,,Public,Mon 5:00am - 10:59pm; Tue 5:00am - 10:59pm; Wed 5:00am - 10:59pm; Thu 5:00am - 10:59pm; Fri 5:00am - 10:59pm; Sat 5:00am - 10:59pm; Sun 5:00am - 10:59pm,,,,,,4,,,Volta,https://voltacharging.com/,GPS,41.91551575,-87.764428,04/12/2023,04/11/2023 08:29:11 PM +0000,,,,11/01/2019,,,,,"(41.91551575, -87.764428)"
182886,ELEC,KOHL'S - CHPT 0419 LEMONT 1,13440 Archer Ave,,Lemont,IL,60439,,888-758-4389,E,,Public,24 hours daily,,,,,,1,,,ChargePoint Network,http://www.chargepoint.com/,GPS,41.643949,-88.003065,04/12/2023,04/11/2023 07:15:06 PM +0000,,,,01/27/2021,,,,,"(41.643949, -88.003065)"
237445,ELEC,COMED LIB-F-E-03,1500 Franklin Blvd,,Libertyville,IL,60048,,888-758-4389,E,,Public,24 hours daily,,,,,,2,,,ChargePoint Network,http://www.chargepoint.com/,GPS,42.30226,-88.00783,04/12/2023,04/11/2023 07:18:41 PM +0000,,,,12/08/2022,,,,,"(42.30226, -88.00783)"
212617,ELEC,ADV AURORA AMCMP-ED-03,13250 Washington Ave,,Mount Pleasant,WI,53177,,888-758-4389,E,,Public,24 hours daily,,,,,,2,,,ChargePoint Network,http://www.chargepoint.com/,GPS,42.726622,-87.946354,04/12/2023,04/11/2023 07:33:05 PM +0000,,,,03/24/2022,,,,,"(42.726622, -87.946354)"
255085,ELEC,Vail Avenue Garage,22 S. Vail Avenue,,Arlington  Heights,IL,60005,,800-663-5633,E,,Public,,,,,,,2,,,SemaCharge Network,https://semaconnect.com/,GPS,42.082129,-87.984428,04/12/2023,04/11/2023 07:01:44 PM +0000,,,,11/11/2022,,,,,"(42.082129, -87.984428)"
52321,LPG,Menards,7435 Barrington Rd,,Hanover Park,IL,60133,,630-213-8775,E,,Public,"6:30am-10pm M-Sat, 8am-8pm Sun",A Cash Checks D M V,,,,,,,,,,200-9,42.006469,-88.141708,09/14/2022,02/14/2023 09:54:11 AM +0000,P,,,07/16/2013,,,true,,"(42.006469, -88.141708)"
28637,E85,Thorntons #125,2800 Ogden Ave,,Aurora,IL,60504,,630-820-6468,E,,Public - Credit card at all times,24 hours daily,A Cash D M V Voyager Wright_Exp,,,,,,,,,,200-9,41.741088,-88.246494,09/14/2022,02/14/2023 09:54:11 AM +0000,P,,,07/15/2006,,,,true,"(41.741088, -88.246494)"
219643,E85,Thorntons,11975 IL-47,,Huntley,IL,60142,,847-204-2898,E,,Public,24 hours daily,,,,,,,,,,,GPS,42.1545743099014,-88.4329531738042,06/14/2022,02/14/2023 09:54:11 AM +0000,P,,,04/13/2022,,,,true,"(42.1545743099014, -88.4329531738042)"
231079,ELEC,INDIANA DUNNES WEST BEACH,300 W Beach Rd,,Gary,IN,46403,,888-758-4389,T,03/05/2023,TEMPORARILY UNAVAILABLE (Public),24 hours daily,,,,,,2,,,ChargePoint Network,http://www.chargepoint.com/,GPS,41.622604,-87.208596,04/12/2023,04/11/2023 07:08:15 PM +0000,,,,10/01/2022,,,,,"(41.622604, -87.208596)"
237374,ELEC,COMED CTC-E-E-02,3794-3899 S Iron St,,Chicago,IL,60609,,888-758-4389,E,,Public,24 hours daily,,,,,,2,,,ChargePoint Network,http://www.chargepoint.com/,GPS,41.824323,-87.659589,04/12/2023,04/11/2023 07:06:49 PM +0000,,,,12/08/2022,,,,,"(41.824323, -87.659589)"
98760,ELEC,Berman Nissan - Chicago,3456 N Kedzie Ave,,Chicago,IL,60618,,773-295-4650,E,,Public - Call ahead,Dealership business hours,,,,,,1,1,,Non-Networked,,GPS,41.943587,-87.708212,06/09/2020,02/15/2023 04:45:41 PM +0000,P,,,06/06/2018,,,,,"(41.943587, -87.708212)"
184701,ELEC,EPA Chicago,303 S Clark St,,Chicago,IL,60605,,,E,,Private - Government only,Drivers must bring their own J1772 cordset for Level 1 charging,,,,,2,,,,Non-Networked,,GPS,41.877992,-87.630422,02/22/2021,02/10/2022 03:00:18 PM +0000,FG,20,U.S. Environmental Protection Agency,01/15/2021,,,,,"(41.877992, -87.630422)"
251371,ELEC,NOW Foods,395 Glen Ellyn Rd,,Bloomingdale,IL,60108,,,E,,Private,Contact station for hours of availability,,,,,,4,,,AMPUP,https://ampup.io/,GPS,41.932154,-88.060451,02/13/2023,02/14/2023 09:54:11 AM +0000,P,,,11/28/2022,,,,,"(41.932154, -88.060451)"
33497,E85,Family Express #34 - Roselawn,11880 W State Route 10,"I-65, Exit 230",De Montte,IN,46310,,219-345-4100,E,,Public,4am-11pm daily,A Cash D Debit M V Voyager Wright_Exp,,,,,,,,,,GPS,41.144817,-87.273803,11/10/2022,02/14/2023 09:54:11 AM +0000,P,,,09/01/2008,,,,false,"(41.144817, -87.273803)"
197202,ELEC,WAYNE FUELING WAYNE FUELING,2301 S Lake Shore Dr,,Chicago,IL,60616,,888-758-4389,T,09/09/2022,TEMPORARILY UNAVAILABLE (Public),24 hours daily,,,,,,2,,,ChargePoint Network,http://www.chargepoint.com/,GPS,41.852623,-87.61196,04/12/2023,04/11/2023 07:29:56 PM +0000,,,,10/07/2021,,,,,"(41.852623, -87.61196)"
46797,ELEC,Arlington Nissan,1100 W Dundee Rd,,Arlington Heights,IL,60004,,847-590-6100,E,,Public - Call ahead,Dealership business hours,,,,,,1,1,,Non-Networked,,200-9,42.139843,-87.996655,03/07/2022,02/14/2023 09:54:11 AM +0000,P,,,01/31/2012,,,,,"(42.139843, -87.996655)"
151753,ELEC,Jewel Osco 4250 N Lincoln Chicago IL,4250 N Lincoln,,Chicago,IL,60618,,888-264-2208,E,,Public,Mon 5:00am - 10:59pm; Tue 5:00am - 10:59pm; Wed 5:00am - 10:59pm; Thu 5:00am - 10:59pm; Fri 5:00am - 10:59pm; Sat 5:00am - 10:59pm; Sun 5:00am - 10:59pm,,,,,,2,,,Volta,https://voltacharging.com/,GPS,41.9587395,-87.682646,04/12/2023,04/11/2023 08:30:23 PM +0000,,,,08/30/2019,,,,,"(41.9587395, -87.682646)"
237404,ELEC,COMED CFD-F-N-01,4126 W 36th St,,Chicago,IL,60632,,888-758-4389,E,,Public,24 hours daily,,,,,,2,,,ChargePoint Network,http://www.chargepoint.com/,GPS,41.828479,-87.72678,04/12/2023,04/11/2023 07:11:02 PM +0000,,,,12/08/2022,,,,,"(41.828479, -87.72678)"
202796,ELEC,INTERPARK LAKE N WELLS 1,177 N Wells St,,Chicago,IL,60606,,888-758-4389,E,,Public,24 hours daily,,,,,,2,,,ChargePoint Network,http://www.chargepoint.com/,GPS,41.885387,-87.63364,04/12/2023,04/11/2023 07:31:25 PM +0000,,,,12/18/2021,,,,,"(41.885387, -87.63364)"
68049,LPG,U-Haul,822 165th St,,Hammond,IN,46324,,219-937-1454,E,,Public,"7am-7pm M-Th and Sat, 7am-8pm F, 9am-5pm Sun",A Cash D M V,,,,,,,,,,200-9,41.595218,-87.508028,02/13/2023,02/14/2023 09:54:11 AM +0000,P,,,06/25/2015,,,false,,"(41.595218, -87.508028)"
171735,ELEC,EVANSTON CAMPUS NORTH GARAGE 3,2311 N. Campus Dr,,Evanston,IL,60208,,888-758-4389,E,,Public,24 hours daily,,,,,,2,,,ChargePoint Network,http://www.chargepoint.com/,GPS,42.059383,-87.67417,04/12/2023,04/11/2023 07:10:52 PM +0000,,,,01/27/2021,,,,,"(42.059383, -87.67417)"
237467,ELEC,COMED S2-4,3500 N California Ave,,Chicago,IL,60618,,888-758-4389,E,,Public,24 hours daily,,,,,,2,,,ChargePoint Network,http://www.chargepoint.com/,GPS,41.943968,-87.699883,04/12/2023,04/11/2023 07:21:26 PM +0000,,,,12/08/2022,,,,,"(41.943968, -87.699883)"
186145,ELEC,130 Applebee,130 Applebee Street,,Barrington,IL,60010,,800-663-5633,E,,Public,,,,,,,1,,,SemaCharge Network,https://semaconnect.com/,GPS,42.155329,-88.138956,04/11/2023,04/11/2023 06:58:05 PM +0000,,,,09/24/2019,,,,,"(42.155329, -88.138956)"
98625,BD,Thorntons #119,2265 W Algonquin Rd,,Lake in the Hills,IL,60156,,847-458-0470,E,,Public,24 hours daily,A Cash D Debit M V Voyager Wright_Exp,B20,,,,,,,,,200-9,42.175191,-88.329977,11/10/2022,02/14/2023 09:54:11 AM +0000,P,,,05/15/2018,,,,,"(42.175191, -88.329977)"
213498,ELEC,VILLAGE COURT GLENCOE VILLAGE,675 Vernon Ave,,Glencoe,IL,60022,,888-758-4389,E,,Public,24 hours daily,,,,,,2,,,ChargePoint Network,http://www.chargepoint.com/,GPS,42.133473,-87.759188,04/12/2023,04/11/2023 07:33:20 PM +0000,,,,04/06/2022,,,,,"(42.133473, -87.759188)"
73494,E85,Speedway #5370,631 N Route 59,,Naperville,IL,60563,,630-983-5991,E,,Public - Credit card at all times,24 hours daily,A Cash Checks D M V Voyager Wright_Exp,,,,,,,,,,200-8,41.782975,-88.205743,10/11/2022,02/14/2023 09:54:11 AM +0000,P,,,02/15/2016,,,,false,"(41.782975, -88.205743)"
48934,E85,BP,4111 N Manheim,,Schiller Park,IL,60176,,847-678-5480,E,,Public,24 hours daily,A Cash D Debit M V Voyager Wright_Exp,,,,,,,,,,GPS,41.95369429336844,-87.88553447857362,11/10/2022,02/14/2023 09:54:11 AM +0000,P,,,01/15/2010,,,,false,"(41.95369429336844, -87.88553447857362)"
61455,ELEC,HOOTERS COUNTRYSIDE,5925 South La Grange Road,,Countryside,IL,60525,,888-758-4389,E,,Public,24 hours daily,,,,,,2,,,ChargePoint Network,http://www.chargepoint.com/,GPS,41.781666,-87.867545,04/12/2023,04/11/2023 07:03:37 PM +0000,,,,04/24/2014,,,,,"(41.781666, -87.867545)"
69183,ELEC,DISTRICT 214 PHS 1,801 W Kensington Rd,,Mount Prospect,IL,60056,,888-758-4389,E,,Public,24 hours daily,,,,,,2,,,ChargePoint Network,http://www.chargepoint.com/,GPS,42.079464,-87.949087,04/12/2023,04/11/2023 07:06:34 PM +0000,,,,08/25/2015,,,,,"(42.079464, -87.949087)"
104858,E85,Kwik Trip #580,6801 Washington Ave,,Mt. Pleasant,WI,53406,,262-884-0442,E,,Public,24 hours daily,A ANDROID_PAY APPLE_PAY Cash Checks CREDIT D M V Voyager Wright_Exp,,,,,,,,,,200-8,42.719061,-87.864048,05/05/2022,02/20/2023 01:33:35 PM +0000,P,,,11/15/2018,,,,true,"(42.719061, -87.864048)"
252879,ELEC,IKEA USA BOLINGBROOK 3,750 E Boughton Rd,,Bolingbrook,IL,60440,,888-758-4389,E,,Public,24 hours daily,,,,,,1,,,ChargePoint Network,http://www.chargepoint.com/,GPS,41.727574,-88.03718,04/12/2023,04/11/2023 07:32:48 PM +0000,,,,02/01/2023,,,,,"(41.727574, -88.03718)"
35712,E85,Family Express - Valpo West,752 W Lincolnway,,Valparaiso,IN,46385,,219-462-8040,E,,Public,5am-11pm daily,A Cash D M V Voyager Wright_Exp,,,,,,,,,,200-9,41.46898,-87.070015,11/10/2022,02/14/2023 09:54:11 AM +0000,P,,,10/15/2009,,,,false,"(41.46898, -87.070015)"
73149,E85,Thorntons #313,11 N Route 12,,Fox Lake,IL,60020,,847-587-0554,E,,Public - Credit card at all times,24 hours daily,A Cash D M V Voyager Wright_Exp,,,,,,,,,,GPS,42.39739446210545,-88.18320983201602,09/14/2022,02/14/2023 09:54:11 AM +0000,P,,,01/15/2016,,,,true,"(42.39739446210545, -88.18320983201602)"
237425,ELEC,COMED LC2-E-F,2 Lincoln Ave,,Oakbrook Terrace,IL,60181,,888-758-4389,E,,Public,24 hours daily,,,,,,2,,,ChargePoint Network,http://www.chargepoint.com/,GPS,41.846029,-87.985667,04/12/2023,04/11/2023 07:16:39 PM +0000,,,,12/08/2022,,,,,"(41.846029, -87.985667)"
40888,E85,Speedway #5381,314 S State St,,Lockport,IL,60441,,815-838-3563,E,,Public - Credit card at all times,24 hours daily,A Cash D M V Voyager Wright_Exp,,,,,,,,,,200-9,41.594741,-88.054419,10/11/2022,02/14/2023 09:54:11 AM +0000,P,,,08/12/2011,,,,false,"(41.594741, -88.054419)"
212940,ELEC,ADVOCATE GOOD SAM GARAGE,Wellness Way,,Downers Grove,IL,60515,,888-758-4389,E,,Public,24 hours daily,,,,,,2,,,ChargePoint Network,http://www.chargepoint.com/,GPS,41.818777,-88.006497,04/12/2023,04/11/2023 07:03:57 PM +0000,,,,03/27/2022,,,,,"(41.818777, -88.006497)"
64902,E85,Raceco,4502 Indianapolis Blvd,,East Chicago,IN,46312,,219-398-2063,E,,Public,24 hours daily,A Cash D M V Voyager Wright_Exp,,,,,,,,,,200-9,41.631989,-87.481299,11/10/2022,02/14/2023 09:54:11 AM +0000,P,,,12/19/2014,,,,false,"(41.631989, -87.481299)"
229594,ELEC,Munster Town Hall,1005 Ridge Road,,Munster,IN,46321,,833-692-6787,E,,Public - Credit card at all times,Contact station for hours of availability.,A ANDROID_PAY APPLE_PAY CREDIT D M,,,,,1,,,AMPUP,https://ampup.io/,200-9,41.560955,-87.504837,10/11/2022,02/14/2023 09:54:11 AM +0000,LG,,,09/15/2022,,,,,"(41.560955, -87.504837)"
31669,E85,Family Express - Kouts,104 S Main St,At corner of State Road 49 and 8,Kouts,IN,46347,,219-766-2711,E,,Public,24 hours daily,A Cash D M V Voyager Wright_Exp,,,,,,,,,,200-9,41.317802,-87.026149,11/10/2022,02/14/2023 09:54:11 AM +0000,P,,,05/15/2007,,,,false,"(41.317802, -87.026149)"
60715,ELEC,Kankakee Community College - North Extension Center,450 N Kinzie Ave,,Bradley,IL,60915,,815-802-8100,E,,Public,24 hours daily,,,,,,1,,,Non-Networked,,GPS,41.150316,-87.850309,11/10/2022,02/14/2023 09:54:11 AM +0000,P,,,06/20/2014,,,,,"(41.150316, -87.850309)"
252750,ELEC,10 N MARTINGALE WPOC 10 GARAGE,10 N Martingale Rd,,Schaumburg,IL,60173,,888-758-4389,E,,Public,24 hours daily,,,,,,2,,,ChargePoint Network,http://www.chargepoint.com/,GPS,42.025604,-88.033745,04/12/2023,04/11/2023 07:36:25 PM +0000,,,,01/31/2023,,,,,"(42.025604, -88.033745)"
237486,ELEC,COMED BOL-F-W1,1040 N Janes Ave,,Bolingbrook,IL,60440,,888-758-4389,E,,Public,24 hours daily,,,,,,2,,,ChargePoint Network,http://www.chargepoint.com/,GPS,41.73028,-88.03746,04/12/2023,04/11/2023 07:22:20 PM +0000,,,,12/08/2022,,,,,"(41.73028, -88.03746)"
114176,ELEC,Hilton Orrington/Evanston - Tesla Destination,1710 Orrington Ave,,Evanston,IL,60201,,847-866-8700  877-798-3752,E,,Public,,,,,,,2,,,Tesla Destination,https://www.tesla.com/destination-charging,200-9,42.049151,-87.6804256,10/06/2022,01/18/2023 09:15:20 AM +0000,P,,,10/19/2017,,,,,"(42.049151, -87.6804256)"
191672,ELEC,BOLINGBROOK STATION 2,500 Remington Blvd,,Bolingbrook,IL,60440,,888-758-4389,E,,Public,24 hours daily,,,,,,2,,,ChargePoint Network,http://www.chargepoint.com/,GPS,41.680797,-88.084733,04/12/2023,04/11/2023 07:29:07 PM +0000,,,,07/01/2021,,,,,"(41.680797, -88.084733)"
114210,ELEC,Four Points by Sheraton Chicago O'Hare Airport - Tesla Destination,10249 W Irving Park Rd,,Schiller Park,IL,60176,,847-671-6000  877-798-3752,E,,Public,,,,,,,2,,,Tesla Destination,https://www.tesla.com/destination-charging,200-8,41.9552467,-87.8826061,10/06/2022,01/18/2023 09:15:20 AM +0000,P,,,09/20/2017,,,,,"(41.9552467, -87.8826061)"
50498,LPG,Menards,2545 IL-26 S,,Freeport,IL,60132,,815-235-0010,E,,Public,"6:30am-10pm M-Sat, 8am-8pm Sun",A Cash Checks D M V,,,,,,,,,,GPS,42.262789,-89.629456,09/14/2022,02/14/2023 09:54:11 AM +0000,P,,,01/02/2018,,,true,,"(42.262789, -89.629456)"
240930,ELEC,Texaco electric,302 N 4th St,,Kentland,IN,47951,,888-998-2546,E,,Public,,,,,,,2,,,Blink Network,http://www.blinkcharging.com/,GPS,40.770337,-87.443501,04/12/2023,04/11/2023 07:00:27 PM +0000,,,,01/05/2023,,,,,"(40.770337, -87.443501)"
237357,ELEC,COMED LC2-E-C,2 Lincoln Centre,,Oakbrook Terrace,IL,60181,,888-758-4389,E,,Public,24 hours daily,,,,,,2,,,ChargePoint Network,http://www.chargepoint.com/,GPS,41.846038,-87.985661,04/12/2023,04/11/2023 07:03:32 PM +0000,,,,12/08/2022,,,,,"(41.846038, -87.985661)"
171378,ELEC,KISHWAUKEE WRD KWRD CHARGER #3,1301 Sycamore Rd.,,DeKalb,IL,60115,,888-758-4389,E,,Public,24 hours daily,,,,,,2,,,ChargePoint Network,http://www.chargepoint.com/,GPS,41.942835,-88.738912,04/12/2023,04/11/2023 07:26:49 PM +0000,,,,01/20/2021,,,,,"(41.942835, -88.738912)"
172818,ELEC,OPTIMA OPTIMA 2,220 E Illinois St,,Chicago,IL,60611,,888-758-4389,E,,Public,24 hours daily,,,,,,2,,,ChargePoint Network,http://www.chargepoint.com/,GPS,41.891147,-87.621408,04/12/2023,04/11/2023 07:07:58 PM +0000,,,,01/27/2021,,,,,"(41.891147, -87.621408)"
51641,E85,Thorntons #308,34225 N US 45,,Third Lake,IL,60030,,847-543-4808,E,,Public - Credit card at all times,24 hours daily,A Cash D FleetOne FuelMan M V Voyager Wright_Exp,,,,,,,,,,GPS,42.360194,-88.000508,09/14/2022,02/14/2023 09:54:11 AM +0000,P,,,04/15/2012,,,,true,"(42.360194, -88.000508)"
238799,ELEC,COMED STATION #5,1N301 Swift Rd,,Lombard,IL,60148,,888-758-4389,E,,Public,24 hours daily,,,,,,2,,,ChargePoint Network,http://www.chargepoint.com/,GPS,41.897191,-88.042837,04/12/2023,04/11/2023 07:37:10 PM +0000,,,,12/27/2022,,,,,"(41.897191, -88.042837)"
150824,ELEC,MOTORWERKS1475 STATION 8,1475 Barrington Rd,,Barrington,IL,60010,,888-758-4389,E,,Public,24 hours daily,,,,,,2,,,ChargePoint Network,http://www.chargepoint.com/,GPS,42.129088,-88.135725,04/12/2023,04/11/2023 07:21:02 PM +0000,,,,12/28/2019,,,,,"(42.129088, -88.135725)"
237439,ELEC,COMED LC3-E-F,3 Lincoln Center,,Oakbrook Terrace,IL,60181,,888-758-4389,E,,Public,24 hours daily,,,,,,2,,,ChargePoint Network,http://www.chargepoint.com/,GPS,41.848264,-87.984143,04/12/2023,04/11/2023 07:17:35 PM +0000,,,,12/08/2022,,,,,"(41.848264, -87.984143)"
103140,ELEC,209 ELMHURST HAHN ST PARKING,123 Hahn St,,Elmhurst,IL,60126,,888-758-4389,E,,Public,24 hours daily,,,,,,2,,,ChargePoint Network,http://www.chargepoint.com/,GPS,41.904521,-87.940415,04/12/2023,04/11/2023 07:12:04 PM +0000,,,,09/22/2018,,,,,"(41.904521, -87.940415)"
204466,ELEC,PARKVIEW STATION 1,19 Oakbrook Center,,Oak Brook,IL,60523,,888-758-4389,E,,Public,24 hours daily,,,,,,2,,,ChargePoint Network,http://www.chargepoint.com/,GPS,41.847057,-87.959164,04/12/2023,04/11/2023 07:31:51 PM +0000,,,,01/07/2022,,,,,"(41.847057, -87.959164)"
213121,E85,Kwik Trip #974,8012 39th Ave,,Kenosha,WI,53142,,262-694-9005,E,,Public,24 hours daily,A ANDROID_PAY APPLE_PAY Cash Checks CREDIT D M V Voyager Wright_Exp,,,,,,,,,,200-9,42.5586,-87.855542,04/06/2022,02/20/2023 01:33:35 PM +0000,P,,,10/10/2017,,,,true,"(42.5586, -87.855542)"
73191,E85,Shell,4578 N River Rd,,Schiller Park,IL,60176,,847-678-3110,E,,Public,24 hours daily,A Cash D Debit M V Voyager,,,,,,,,,,200-8,41.961896,-87.861416,01/10/2023,02/14/2023 09:54:11 AM +0000,P,,,01/15/2016,,,,false,"(41.961896, -87.861416)"
85848,ELEC,CLC LOT 7 PARKING LOT 1,"Rotunda Way, N of Brae Loch Rd Parking Lot 1",,Grayslake,IL,60030,,888-758-4389,E,,Public,24 hours daily,,,,,,2,,,ChargePoint Network,http://www.chargepoint.com/,GPS,42.353034,-88.011124,04/12/2023,04/11/2023 07:09:37 PM +0000,,,,07/11/2017,,,,,"(42.353034, -88.011124)"
237489,ELEC,COMED UNI-F-SW2,25000 Governors Hwy,,University Park,IL,60484,,888-758-4389,E,,Public,24 hours daily,,,,,,2,,,ChargePoint Network,http://www.chargepoint.com/,GPS,41.428513,-87.74169,04/12/2023,04/11/2023 07:23:25 PM +0000,,,,12/08/2022,,,,,"(41.428513, -87.74169)"
151770,ELEC,Oakbrook Center Orange Garage Ground Level,100 Oakbrook Center,,Oak Brook,IL,60523,,888-264-2208,E,,Public,Mon 5:00am - 10:59pm; Tue 5:00am - 10:59pm; Wed 5:00am - 10:59pm; Thu 5:00am - 10:59pm; Fri 5:00am - 10:59pm; Sat 5:00am - 10:59pm; Sun 5:00am - 10:59pm,,,,,,2,,,Volta,https://voltacharging.com/,GPS,41.85101,-87.95349,04/12/2023,04/11/2023 08:28:52 PM +0000,,,,07/31/2015,,,,,"(41.85101, -87.95349)"
237391,ELEC,COMED CND-F-W-02,3500 N California Ave,,Chicago,IL,60618,,888-758-4389,E,,Public,24 hours daily,,,,,,2,,,ChargePoint Network,http://www.chargepoint.com/,GPS,41.945336,-87.69905,04/12/2023,04/11/2023 07:07:56 PM +0000,,,,12/08/2022,,,,,"(41.945336, -87.69905)"
60516,E85,Speedway #7461,12700 S Pulaski Rd,,Alsip,IL,60803,,708-385-0711,E,,Public - Credit card at all times,24 hours daily,A Cash D M V Voyager Wright_Exp,,,,,,,,,,200-9,41.661649,-87.719581,10/11/2022,02/14/2023 09:54:11 AM +0000,P,,,02/25/2014,,,,false,"(41.661649, -87.719581)"
152179,ELEC,Fox Valley Mall NW entrance,195 Fox Valley Center,,Aurora,IL,60504,,888-264-2208,E,,Public,Mon 5:00am - 10:59pm; Tue 5:00am - 10:59pm; Wed 5:00am - 10:59pm; Thu 5:00am - 10:59pm; Fri 5:00am - 10:59pm; Sat 5:00am - 10:59pm; Sun 5:00am - 10:59pm,,,,,,2,,,Volta,https://voltacharging.com/,GPS,41.7592865,-88.2145345,04/12/2023,04/11/2023 08:30:36 PM +0000,,,,01/20/2020,,,,,"(41.7592865, -88.2145345)"
63864,CNG,Waste Management - IL North,350 Sumac Rd,,Wheeling,IL,60090,,,E,,Private,,,,T,3600,,,,,,,200-9,42.119053,-87.89901,06/14/2022,02/28/2023 10:13:26 AM +0000,P,,,10/24/2014,,HD,,,"(42.119053, -87.89901)"
114198,ELEC,Hardware Gastro Pub - Tesla Destination,2000 W Orchard Rd,,North Aurora,IL,60542,,630-299-3977  877-798-3752,E,,Public,,,,,,,3,,,Tesla Destination,https://www.tesla.com/destination-charging,GPS,41.817455,-88.350806,10/06/2022,01/18/2023 09:15:20 AM +0000,P,,,07/19/2016,,,,,"(41.817455, -88.350806)"
217426,ELEC,VALPARAISO DHDH 01,60 W Jefferson St,,Valparaiso,IN,46383,,888-758-4389,E,,Public,24 hours daily,,,,,,2,,,ChargePoint Network,http://www.chargepoint.com/,GPS,41.469161,-87.061923,04/12/2023,04/11/2023 07:07:18 PM +0000,,,,05/13/2022,,,,,"(41.469161, -87.061923)"
182168,ELEC,PEOPLES GAS PETC 1,4228 W 35th Pl PETC,,Chicago,IL,60632,,888-758-4389,E,,Public,24 hours daily,,,,,,2,,,ChargePoint Network,http://www.chargepoint.com/,GPS,41.831199,-87.730815,04/12/2023,04/11/2023 07:26:35 PM +0000,,,,01/27/2021,,,,,"(41.831199, -87.730815)"
46821,ELEC,The Autobarn Nissan,1012 Chicago Ave,,Evanston,IL,60202,,847-475-8200,E,,Public - Call ahead,Dealership business hours,,,,,,1,1,,Non-Networked,,200-9,42.03616,-87.680149,03/07/2022,02/14/2023 09:54:11 AM +0000,P,,,01/31/2012,,,,,"(42.03616, -87.680149)"
62674,CNG,Naval Station Great Lakes,2415 Spaulding St,,Great Lakes,IL,60088,,,E,,Private - Government only,,,,Q,3000 3600,,,,,,,200-8,42.317212,-87.851241,07/12/2022,02/14/2023 09:54:11 AM +0000,FG,14,Department of Navy,04/15/2005,,HD,,,"(42.317212, -87.851241)"
47141,ELEC,Bob Rohrman Nissan,220 Verplank Rd,,Burns Harbor,IN,46304,,219-787-1777,E,,Public - Call ahead,Dealership business hours,,,,,,1,1,,Non-Networked,,200-9,41.604651,-87.110979,06/09/2020,02/15/2023 04:45:41 PM +0000,P,,,01/31/2012,,,,,"(41.604651, -87.110979)"
117866,ELEC,B&B Auto Inc,913 Front St,,McHenry,IL,60050,,815-363-7560,E,,Public,"8am-6pm M-F, 8am-3pm Sat",,,,,,1,,,Non-Networked,,200-9,42.341617,-88.274825,10/11/2022,02/14/2023 09:54:11 AM +0000,P,,,02/01/2019,,,,,"(42.341617, -88.274825)"
219717,E85,Shell,2832 S Illinois Rte 59,,Naperville,IL,60564,,630-548-5407,E,,Public,24 hours daily,,,,,,,,,,,GPS,41.7127020940115,-88.205095220339,06/14/2022,02/14/2023 09:54:11 AM +0000,P,,,03/31/2022,,,,false,"(41.7127020940115, -88.205095220339)"
193520,ELEC,PRUDENTIALPLAZA STATION 02,310 N Stetson Ave,,Chicago,IL,60601,,888-758-4389,E,,Public,24 hours daily,,,,,,2,,,ChargePoint Network,http://www.chargepoint.com/,GPS,41.887424,-87.622235,04/12/2023,04/11/2023 07:22:44 PM +0000,,,,08/06/2021,,,,,"(41.887424, -87.622235)"
237449,ELEC,COMED JOL-E-B,1910 S Briggs St,,Joliet,IL,60433,,888-758-4389,E,,Public,24 hours daily,,,,,,2,,,ChargePoint Network,http://www.chargepoint.com/,GPS,41.49235,-88.037506,04/12/2023,04/11/2023 07:20:03 PM +0000,,,,12/08/2022,,,,,"(41.49235, -88.037506)"
202989,ELEC,The Hart Professional Center,800 Hart Road Barrington IL,,Barrington,IL,60010,,800-663-5633,E,,Public,,,,,,,2,,,SemaCharge Network,https://semaconnect.com/,GPS,42.162393,-88.15312,04/12/2023,04/11/2023 07:00:33 PM +0000,,,,11/03/2021,,,,,"(42.162393, -88.15312)"
78528,ELEC,- NIU,175 Normal Rd,,DeKalb,IL,60115,,888-758-4389,E,,Public,24 hours daily,,,,,,2,,,ChargePoint Network,http://www.chargepoint.com/,GPS,41.932405,-88.766603,04/12/2023,04/11/2023 07:06:25 PM +0000,,,,09/17/2016,,,,,"(41.932405, -88.766603)"
147817,ELEC,EnV Chicago,161 W Kinzie St,,Chicago,IL,60654,,800-663-5633,T,02/27/2023,TEMPORARILY UNAVAILABLE (Public),,,,,,,2,,,SemaCharge Network,https://semaconnect.com/,GPS,41.888947,-87.633634,04/11/2023,04/11/2023 06:58:39 PM +0000,,,,01/09/2018,,,,,"(41.888947, -87.633634)"
174126,ELEC,SP PLUS CORP MCCORMICK 1,2301 S Prairie Ave,,Chicago,IL,60616,,888-758-4389,E,,Public,24 hours daily,,,,,,2,,,ChargePoint Network,http://www.chargepoint.com/,GPS,41.851227,-87.620567,04/12/2023,04/11/2023 07:17:16 PM +0000,,,,01/27/2021,,,,,"(41.851227, -87.620567)"
42656,ELEC,GATEWAY TECH ELKHORN 1,400 County Road H,,Elkhorn,WI,53121,,888-758-4389,E,,Public,24 hours daily,,,,,,2,,,ChargePoint Network,http://www.chargepoint.com/,GPS,42.666735,-88.524261,04/12/2023,04/11/2023 07:10:20 PM +0000,,,,12/15/2011,,,,,"(42.666735, -88.524261)"
80226,E85,Speedway #6809,2139 N Manheim Rd,,Northlake,IL,60164,,847-288-0133,E,,Public - Credit card at all times,24 hours daily,A Cash D M V Voyager Wright_Exp,,,,,,,,,,200-9,41.916058,-87.883544,10/11/2022,02/14/2023 09:54:11 AM +0000,P,,,12/15/2016,,,,false,"(41.916058, -87.883544)"
196876,ELEC,NPS MWRO: INDU - West Beach Parking Area,200 N County Line Rd,,Portage,IN,46368,,,E,,Public,24 hours daily,,,,,,2,,,Non-Networked,,GPS,41.539222,-87.221141,10/12/2021,03/10/2023 03:33:17 PM +0000,FG,16,Department of the Interior,09/21/2021,,,,,"(41.539222, -87.221141)"
224362,ELEC,COMED AUR-F-SE2-2,2001 Aucutt Rd,,Montgomery,IL,60538,,888-758-4389,E,,Public,24 hours daily,,,,,,1,,,ChargePoint Network,http://www.chargepoint.com/,GPS,41.72954,-88.367031,04/12/2023,04/11/2023 07:34:38 PM +0000,,,,07/23/2022,,,,,"(41.72954, -88.367031)"
236739,ELEC,WINNETKA VILLAGE HALL,511 Chestnut St,,Winnetka,IL,60093,,888-758-4389,E,,Public,24 hours daily,,,,,,1,,,ChargePoint Network,http://www.chargepoint.com/,GPS,42.104747,-87.733863,04/12/2023,04/11/2023 07:36:36 PM +0000,,,,11/30/2022,,,,,"(42.104747, -87.733863)"
205194,ELEC,INTERPARK ONTARIO-CLAIR 2,614 N St Clair St,,Chicago,IL,60611,,888-758-4389,E,,Public,24 hours daily,,,,,,2,,,ChargePoint Network,http://www.chargepoint.com/,GPS,41.89315,-87.62299,04/12/2023,04/11/2023 07:31:18 PM +0000,,,,01/22/2022,,,,,"(41.89315, -87.62299)"
180607,ELEC,BUCK MANAGEMENT LEVEL 2 324,845 W Madison St,,Chicago,IL,60607,,888-758-4389,E,,Public,24 hours daily,,,,,,2,,,ChargePoint Network,http://www.chargepoint.com/,GPS,41.880838,-87.649007,04/12/2023,04/11/2023 07:23:13 PM +0000,,,,01/27/2021,,,,,"(41.880838, -87.649007)"
189176,ELEC,McDonalds 6676,600 N Clark,,Chicago,IL,60610,,888-998-2546,E,,Public,,,,,,,1,,,Blink Network,http://www.blinkcharging.com/,GPS,41.892786,-87.631728,04/11/2023,04/10/2023 07:00:15 PM +0000,,,,05/04/2021,,,,,"(41.892786, -87.631728)"
114189,ELEC,Eaglewood Resort & Spa - Tesla Destination,1401 Nordic Rd,,Itasca,IL,60143,,630-773-1400  877-798-3752,E,,Public,,,,,,,3,,,Tesla Destination,https://www.tesla.com/destination-charging,200-9,41.958133,-88.0393104,10/06/2022,01/18/2023 09:15:20 AM +0000,P,,,09/20/2017,,,,,"(41.958133, -88.0393104)"
151748,ELEC,United Center South Entrance,1901 West Madison St,,Chicago,IL,60612,,888-264-2208,E,,Public,Mon 5:00am - 10:59pm; Tue 5:00am - 10:59pm; Wed 5:00am - 10:59pm; Thu 5:00am - 10:59pm; Fri 5:00am - 10:59pm; Sat 5:00am - 10:59pm; Sun 5:00am - 10:59pm,,,,,,2,,,Volta,https://voltacharging.com/,GPS,41.879903,-87.6741505,04/12/2023,04/11/2023 08:29:06 PM +0000,,,,10/15/2017,,,,,"(41.879903, -87.6741505)"
200716,ELEC,ZURICH STATION #14,1299 Zurich Way,,Schaumburg,IL,60173,,888-758-4389,E,,Public,24 hours daily,,,,,,2,,,ChargePoint Network,http://www.chargepoint.com/,GPS,42.06298,-88.047426,04/12/2023,04/11/2023 07:30:50 PM +0000,,,,11/08/2021,,,,,"(42.06298, -88.047426)"
171695,ELEC,900 SELF PARK PLUG AND SHOP 4,911 N. Rush St,,Chicago,IL,60611,,888-758-4389,E,,Public,24 hours daily,,,,,,2,,,ChargePoint Network,http://www.chargepoint.com/,GPS,41.899639,-87.626307,04/12/2023,04/11/2023 07:03:34 PM +0000,,,,01/27/2021,,,,,"(41.899639, -87.626307)"
47276,CNG,Beyond6,1200 N 600 E,Division Rd and County Rd 1200,Fair Oaks,IN,47943,,877-872-3966,E,,Public - Credit card at all times,24 hours daily; call 866-809-4869 for Clean Energy card,A D FuelMan M V Wright_Exp,,Q,3600,,,,,,,200-8,41.010989,-87.276086,04/06/2023,04/06/2023 12:17:01 PM +0000,P,,,09/06/2011,,HD,,,"(41.010989, -87.276086)"
220691,ELEC,Meijer - Tesla Supercharger,2700 US-34,,Oswego,IL,60543,,877-798-3752,E,,Public,24 hours daily; for Tesla use only,A D Debit M V,,,,,,12,,Tesla,https://www.tesla.com/supercharger,GPS,41.6998502,-88.312668,10/03/2022,12/01/2022 11:40:26 AM +0000,P,,,05/28/2022,,,,,"(41.6998502, -88.312668)"
92074,E85,Speedway #3991,3201 Grant St,,Gary,IN,46408,,219-980-3921,E,,Public,24 hours daily,A Cash D Debit M V,,,,,,,,,,200-9,41.560132,-87.354703,11/10/2022,02/14/2023 09:54:11 AM +0000,P,,,02/15/2018,,,,false,"(41.560132, -87.354703)"
158350,ELEC,Chicago OHare International Airport - Economy Lot F,10255 W Zemke Blvd,,Chicago,IL,60666,,800-832-6352,E,,Public,24 hours daily,,,,,,24,,,Non-Networked,,GPS,41.99323,-87.881443,10/11/2022,02/14/2023 09:54:11 AM +0000,P,,,05/29/2020,,,,,"(41.99323, -87.881443)"
237443,ELEC,COMED LIB-F-E01,1500 Franklin Blvd,,Libertyville,IL,60048,,888-758-4389,E,,Public,24 hours daily,,,,,,2,,,ChargePoint Network,http://www.chargepoint.com/,GPS,42.301987,-88.00761,04/12/2023,04/11/2023 07:18:41 PM +0000,,,,12/08/2022,,,,,"(42.301987, -88.00761)"
67831,ELEC,North Central College - Old Main,30 N Brainard St,Lot D,Naperville,IL,60540,,,E,,Public,"For employees, students, and campus visitors only",,,,,,2,,,Non-Networked,,200-9,41.7704,-88.146,01/10/2023,02/14/2023 09:54:11 AM +0000,P,,,01/01/2013,,,,,"(41.7704, -88.146)"
228130,ELEC,Whole Foods Market,1550 N Kingsbury St,,Chicago,IL,60642,,877-455-3833,E,,Public,Mon 8:00am - 10:00pm; Tue 8:00am - 10:00pm; Wed 8:00am - 10:00pm; Thu 8:00am - 10:00pm; Fri 8:00am - 10:00pm; Sat 8:00am - 10:00pm; Sun 8:00am - 10:00pm,,,,,,2,,,eVgo Network,https://www.evgo.com/,GPS,41.908771,-87.653054,04/11/2023,04/11/2023 06:55:49 PM +0000,,,,03/07/2018,,,,,"(41.908771, -87.653054)"
36321,E85,City of Chicago FS#8,10420 S Vincennes,104th and Vincennes,Chicago,IL,60643,,,E,,Private - Government only,,,,,,,,,,,,200-8,41.704048,-87.657047,11/10/2022,02/14/2023 09:54:11 AM +0000,LG,,,10/15/2011,,,,false,"(41.704048, -87.657047)"
151856,ELEC,"Walgreens at 15 N Buffalo Grove Rd, Buffalo Grove",15 N Buffalo Grove,,Buffalo Grove,IL,60089,,888-264-2208,E,,Public,Mon 11:00pm - 10:59pm; Tue 11:00pm - 10:59pm; Wed 11:00pm - 10:59pm; Thu 11:00pm - 10:59pm; Fri 11:00pm - 10:59pm; Sat 11:00pm - 10:59pm; Sun 11:00pm - 10:59pm,,,,,,2,,,Volta,https://voltacharging.com/,GPS,42.1536705,-87.9617125,04/12/2023,04/11/2023 08:29:46 PM +0000,,,,11/01/2019,,,,,"(42.1536705, -87.9617125)"
185439,ELEC,ADVOCATE IL MASONIC 1,3011 N Dayton St,,Chicago,IL,60657,,888-758-4389,E,,Public,24 hours daily,,,,,,2,,,ChargePoint Network,http://www.chargepoint.com/,GPS,41.93669,-87.65024,04/12/2023,04/11/2023 07:27:16 PM +0000,,,,02/27/2021,,,,,"(41.93669, -87.65024)"
158453,E85,Casey's General Store,2728 Beck Dr,,Waterford,WI,53185,,262-514-2268,E,,Public - Credit card after hours,5am-9pm M-Sun,A Cash D Debit M V,,,,,,,,,,200-9,42.753291,-88.20899,04/06/2022,03/22/2023 04:21:09 PM +0000,P,,,05/14/2020,,,,false,"(42.753291, -88.20899)"
168953,ELEC,Maryknoll Park - Tesla Destination,845 Pershing Ave,,Glen Ellyn,IL,60137,,  877-798-3752,E,,Public,,,,,,,6,,,Tesla Destination,https://www.tesla.com/destination-charging,200-8,41.857097,-88.05077,10/06/2022,01/18/2023 09:15:20 AM +0000,P,,,05/17/2018,,,,,"(41.857097, -88.05077)"
61146,E85,Meijer Gas #219,14125 S Bell Rd,,Homer Glen,IL,60491,,708-645-5829,E,,Public - Credit card at all times,24 hours daily,A Cash D M V Voyager Wright_Exp,,,,,,,,,,200-8,41.631555,-87.931068,09/14/2022,02/14/2023 09:54:11 AM +0000,P,,,06/26/2014,,,,false,"(41.631555, -87.931068)"
238796,ELEC,COMED STATION #2,1N301 Swift Rd,,Lombard,IL,60148,,888-758-4389,E,,Public,24 hours daily,,,,,,2,,,ChargePoint Network,http://www.chargepoint.com/,GPS,41.897053,-88.042896,04/12/2023,04/11/2023 07:37:10 PM +0000,,,,12/27/2022,,,,,"(41.897053, -88.042896)"
69800,E85,Speedway #2120,1830 US Highway 30,,Oswego,IL,60543,,630-554-3468,E,,Public - Credit card at all times,24 hours daily,A Cash Checks D M Speedway V Voyager Wright_Exp,,,,,,,,,,GPS,41.7151,-88.287695,10/11/2022,02/14/2023 09:54:11 AM +0000,P,,,09/15/2015,,,,false,"(41.7151, -88.287695)"
195697,ELEC,Fair Oaks Farms - Tesla Supercharger,856 N. 600 E.,,Fair Oaks,IN,47943,,877-798-3752,E,,Public,24 hours daily; for Tesla use only,A D Debit M V,,,,,,12,,Tesla,https://www.tesla.com/supercharger,GPS,41.01038506,-87.27656344,10/03/2022,12/01/2022 11:40:26 AM +0000,P,,,09/03/2021,,,,,"(41.01038506, -87.27656344)"
184530,ELEC,"NAVSTA Great Lakes / N00128-B11-1,2,3",715 Ziegemeier St,,Great Lakes,IL,60088,,,E,,Private - Government only,,,,,,,6,,,Non-Networked,,GPS,42.313309,-87.831185,02/22/2021,08/03/2021 07:01:52 PM +0000,FG,14,Department of Navy,01/15/2021,,,,,"(42.313309, -87.831185)"
207785,ELEC,THOR816WFULTON STATION 1,800 W Fulton Market,,Chicago,IL,60607,,888-758-4389,E,,Public,24 hours daily,,,,,,2,,,ChargePoint Network,http://www.chargepoint.com/,GPS,41.88694,-87.64766,04/12/2023,04/11/2023 07:28:41 PM +0000,,,,03/09/2022,,,,,"(41.88694, -87.64766)"
114144,ELEC,Two Brothers Roundhouse - Tesla Destination,205 N Broadway,,Aurora,IL,60505,,630-264-2739  877-798-3752,E,,Public,,,,,,,4,,,Tesla Destination,https://www.tesla.com/destination-charging,200-9,41.760295,-88.308792,10/06/2022,01/18/2023 09:15:20 AM +0000,P,,,12/12/2016,,,,,"(41.760295, -88.308792)"
182847,ELEC,KOHL'S - CHPT 0112 VERNON HIL,235 N Milwaukee Ave,,Vernon Hills,IL,60061,,888-758-4389,E,,Public,24 hours daily,,,,,,2,,,ChargePoint Network,http://www.chargepoint.com/,GPS,42.230299,-87.939902,04/12/2023,04/11/2023 07:15:03 PM +0000,,,,01/27/2021,,,,,"(42.230299, -87.939902)"
214096,ELEC,AMC Market Square 10,2160 Sycamore Road,,Dekalb,IL,60115,,888-264-2208,E,,Public,Mon 5:00am - 10:59pm; Tue 5:00am - 10:59pm; Wed 5:00am - 10:59pm; Thu 5:00am - 10:59pm; Fri 5:00am - 10:59pm; Sat 5:00am - 10:59pm; Sun 5:00am - 10:59pm,,,,,,4,,,Volta,https://voltacharging.com/,GPS,41.947444222,-88.721124851,04/12/2023,04/11/2023 08:28:51 PM +0000,,,,03/28/2022,,,,,"(41.947444222, -88.721124851)"
47200,ELEC,Liberty Nissan,920 S Milwaukee Ave,,Libertyville,IL,60048,,847-680-8000,E,,Private,,,,,,,1,,,Non-Networked,,200-9,42.271355,-87.949478,06/09/2020,02/15/2023 04:45:41 PM +0000,P,,,01/31/2012,,,,,"(42.271355, -87.949478)"
171743,ELEC,PARKING GARAGE P3 NGW,111 S Wacker Dr,,Chicago,IL,60606,,888-758-4389,E,,Public,24 hours daily,,,,,,2,,,ChargePoint Network,http://www.chargepoint.com/,GPS,41.880395,-87.636583,04/12/2023,04/11/2023 07:06:40 PM +0000,,,,01/27/2021,,,,,"(41.880395, -87.636583)"
